[
  {
    "id": "630019578",
    "name": "AMPLA HEALTH MOBILE UNIT",
    "npi": null,
    "hcaiId": "306040538",
    "businessName": "AMPLA HEALTH",
    "contactEmail": "CSNELGROVE@AMPLAHEALTH.ORG",
    "categoryName": "PRIMARY CARE CLINIC",
    "categoryCode": "COMTYC",
    "licenseStatus": "ACTIVE",
    "inService": true,
    "licenseNumber": "230000028",
    "licenseEffectiveDate": "04/24/2025",
    "licenseExpirationDate": "04/23/2026",
    "dataDate": "10/18/2025",
    "capacity": 0,
    "address": "2800 LINCOLN BLVD",
    "city": "OROVILLE",
    "zip": "95966",
    "county": "BUTTE",
    "phone": "(530) 751-3755",
    "lat": 39.50196233,
    "lng": -121.5515757
  },
  {
    "id": "230000091",
    "name": "AMPLA HEALTH OROVILLE MEDICAL & DENTAL",
    "npi": "1952333635",
    "hcaiId": "306044166",
    "businessName": "AMPLA HEALTH",
    "contactEmail": "SDOLAN@AMPLAHEALTH.ORG",
    "categoryName": "PRIMARY CARE CLINIC",
    "categoryCode": "COMTYC",
    "licenseStatus": "ACTIVE",
    "inService": true,
    "licenseNumber": "230000028",
    "licenseEffectiveDate": "04/24/2025",
    "licenseExpirationDate": "04/23/2026",
    "dataDate": "10/18/2025",
    "capacity": 0,
    "address": "2800 LINCOLN BLVD",
    "city": "OROVILLE",
    "zip": "95966",
    "county": "BUTTE",
    "phone": "(530) 534-7500",
    "lat": 39.50196233,
    "lng": -121.5515757
  },
  {
    "id": "630027565",
    "name": "CARE NET PREGNANCY CENTER OF PARADISE INC.",
    "npi": null,
    "hcaiId": null,
    "businessName": "CARENET PREGNANCY CENTER OF PARADISE, INC.",
    "contactEmail": null,
    "categoryName": "PRIMARY CARE CLINIC",
    "categoryCode": "COMTYC",
    "licenseStatus": "ACTIVE",
    "inService": true,
    "licenseNumber": "550003759",
    "licenseEffectiveDate": "02/24/2025",
    "licenseExpirationDate": "02/23/2026",
    "dataDate": "10/18/2025",
    "capacity": 0,
    "address": "2362 LINCOLN ST",
    "city": "OROVILLE",
    "zip": "95966",
    "county": "BUTTE",
    "phone": null,
    "lat": 39.505262,
    "lng": -121.553379
  },
  {
    "id": "230000802",
    "name": "COUNTRY CREST POST-ACUTE",
    "npi": "1477209237",
    "hcaiId": "206044159",
    "businessName": "AOCL, LLC",
    "contactEmail": "CHRISTIANS@ASPENHEALTH.COM",
    "categoryName": "SKILLED NURSING FACILITY",
    "categoryCode": "SNF",
    "licenseStatus": "ACTIVE",
    "inService": true,
    "licenseNumber": "230000351",
    "licenseEffectiveDate": "09/19/2025",
    "licenseExpirationDate": "09/18/2026",
    "dataDate": "10/18/2025",
    "capacity": 59,
    "address": "50 CONCORDIA LN",
    "city": "OROVILLE",
    "zip": "95966",
    "county": "BUTTE",
    "phone": "(530) 532-6600",
    "lat": 39.495717,
    "lng": -121.518522
  },
  {
    "id": "630013035",
    "name": "FAMILY MEDICINE PRACTICE",
    "npi": "1740583095",
    "hcaiId": null,
    "businessName": "OROVILLE HOSPITAL",
    "contactEmail": null,
    "categoryName": "PRIMARY CARE CLINIC",
    "categoryCode": "RHC/OP",
    "licenseStatus": "ACTIVE",
    "inService": true,
    "licenseNumber": "230000022",
    "licenseEffectiveDate": "01/01/2025",
    "licenseExpirationDate": "12/31/2025",
    "dataDate": "10/18/2025",
    "capacity": 0,
    "address": "2721 OLIVE HWY, SUITE 9",
    "city": "OROVILLE",
    "zip": "95966",
    "county": "BUTTE",
    "phone": "(530) 538-3020",
    "lat": 39.504987,
    "lng": -121.541886
  },
  {
    "id": "230000037",
    "name": "FEATHER RIVER CARE CENTER",
    "npi": "1376297143",
    "hcaiId": "206042237",
    "businessName": "FEATHER RIVER CARE CENTER, LLC",
    "contactEmail": "ADMINISTRATOR@FEATHERCARECENTER.ORG",
    "categoryName": "SKILLED NURSING FACILITY",
    "categoryCode": "SNF",
    "licenseStatus": "ACTIVE",
    "inService": true,
    "licenseNumber": "230000059",
    "licenseEffectiveDate": "09/30/2025",
    "licenseExpirationDate": "09/29/2026",
    "dataDate": "10/18/2025",
    "capacity": 50,
    "address": "1 GILMORE LN",
    "city": "OROVILLE",
    "zip": "95966",
    "county": "BUTTE",
    "phone": "(619) 517-4196",
    "lat": 39.508173,
    "lng": -121.5405855
  },
  {
    "id": "630018196",
    "name": "ORCHARD HOSPITAL MEDICAL SPECIALTY CENTER OROVILLE",
    "npi": null,
    "hcaiId": null,
    "businessName": "ORCHARD HOSPITAL",
    "contactEmail": null,
    "categoryName": "PRIMARY CARE CLINIC",
    "categoryCode": "RHC/OP",
    "licenseStatus": "ACTIVE",
    "inService": true,
    "licenseNumber": "230000007",
    "licenseEffectiveDate": "12/01/2024",
    "licenseExpirationDate": "11/30/2025",
    "dataDate": "10/18/2025",
    "capacity": 0,
    "address": "2990 ORO DAM BLVD E, SUITE A",
    "city": "OROVILLE",
    "zip": "95966",
    "county": "BUTTE",
    "phone": null,
    "lat": 39.51106494,
    "lng": -121.5417155
  },
  {
    "id": "110001213",
    "name": "OROVILLE DIALYSIS CLINIC",
    "npi": "1104859594",
    "hcaiId": "306044157",
    "businessName": "DIALYSIS CLINIC, INC.",
    "contactEmail": "MICHELLE.HALLAM@DCIINC.ORG",
    "categoryName": "CHRONIC DIALYSIS CLINIC",
    "categoryCode": "ESRD/CDC",
    "licenseStatus": "ACTIVE",
    "inService": true,
    "licenseNumber": "110000488",
    "licenseEffectiveDate": "05/19/2025",
    "licenseExpirationDate": "05/18/2026",
    "dataDate": "10/18/2025",
    "capacity": 15,
    "address": "3012 OLIVE HWY",
    "city": "OROVILLE",
    "zip": "95966",
    "county": "BUTTE",
    "phone": "(530) 532-6200",
    "lat": 39.501711,
    "lng": -121.538106
  },
  {
    "id": "230000799",
    "name": "OROVILLE FAMILY PRACTICE",
    "npi": "1962506295",
    "hcaiId": null,
    "businessName": "OROVILLE HOSPITAL",
    "contactEmail": null,
    "categoryName": "PRIMARY CARE CLINIC",
    "categoryCode": "RHC/OP",
    "licenseStatus": "ACTIVE",
    "inService": true,
    "licenseNumber": "230000022",
    "licenseEffectiveDate": "01/01/2025",
    "licenseExpirationDate": "12/31/2025",
    "dataDate": "10/18/2025",
    "capacity": 0,
    "address": "2809 OLIVE HWY, SUITE 210 & 260",
    "city": "OROVILLE",
    "zip": "95966",
    "county": "BUTTE",
    "phone": "(530) 532-8010",
    "lat": 39.504447,
    "lng": -121.5404775
  },
  {
    "id": "230000014",
    "name": "OROVILLE HOSPITAL",
    "npi": "1871606269",
    "hcaiId": "106040937",
    "businessName": "OROVILLE HOSPITAL",
    "contactEmail": "INFO@OROHOSP.COM",
    "categoryName": "GENERAL ACUTE CARE HOSPITAL",
    "categoryCode": "GACH",
    "licenseStatus": "ACTIVE",
    "inService": true,
    "licenseNumber": "230000022",
    "licenseEffectiveDate": "01/01/2025",
    "licenseExpirationDate": "12/31/2025",
    "dataDate": "10/18/2025",
    "capacity": 133,
    "address": "2767 OLIVE HWY",
    "city": "OROVILLE",
    "zip": "95966",
    "county": "BUTTE",
    "phone": "(530) 533-8500",
    "lat": 39.506967,
    "lng": -121.5412965
  },
  {
    "id": "230000829",
    "name": "OROVILLE HOSPITAL - MEDICAL CLINIC",
    "npi": "1679581557",
    "hcaiId": null,
    "businessName": "OROVILLE HOSPITAL",
    "contactEmail": null,
    "categoryName": "PRIMARY CARE CLINIC",
    "categoryCode": "RHC/OP",
    "licenseStatus": "ACTIVE",
    "inService": true,
    "licenseNumber": "230000022",
    "licenseEffectiveDate": "01/01/2025",
    "licenseExpirationDate": "12/31/2025",
    "dataDate": "10/18/2025",
    "capacity": 0,
    "address": "2767 OLIVE HWY",
    "city": "OROVILLE",
    "zip": "95966",
    "county": "BUTTE",
    "phone": null,
    "lat": 39.506967,
    "lng": -121.5412965
  },
  {
    "id": "230000221",
    "name": "OROVILLE HOSPITAL POST-ACUTE CENTER",
    "npi": "1427006485",
    "hcaiId": "206044003",
    "businessName": "OROVILLE HOSPITAL",
    "contactEmail": "JMICELI@OROHOSP.COM",
    "categoryName": "SKILLED NURSING FACILITY",
    "categoryCode": "SNF",
    "licenseStatus": "ACTIVE",
    "inService": true,
    "licenseNumber": "230000022",
    "licenseEffectiveDate": "01/01/2025",
    "licenseExpirationDate": "12/31/2025",
    "dataDate": "10/18/2025",
    "capacity": 126,
    "address": "1000 EXECUTIVE PKWY",
    "city": "OROVILLE",
    "zip": "95966",
    "county": "BUTTE",
    "phone": "(530) 533-7335",
    "lat": 39.506373,
    "lng": -121.5391545
  },
  {
    "id": "630014656",
    "name": "OROVILLE HOSPITAL PRIMARY CARE PRACTICE",
    "npi": "1063750297",
    "hcaiId": null,
    "businessName": "OROVILLE HOSPITAL",
    "contactEmail": null,
    "categoryName": "PRIMARY CARE CLINIC",
    "categoryCode": "RHC/OP",
    "licenseStatus": "ACTIVE",
    "inService": true,
    "licenseNumber": "230000022",
    "licenseEffectiveDate": "01/01/2025",
    "licenseExpirationDate": "12/31/2025",
    "dataDate": "10/18/2025",
    "capacity": 0,
    "address": "2721 OLIVE HWY, SUITE 10B",
    "city": "OROVILLE",
    "zip": "95966",
    "county": "BUTTE",
    "phone": "(530) 538-3171",
    "lat": 39.504825,
    "lng": -121.541526
  },
  {
    "id": "230000755",
    "name": "OROVILLE PEDIATRIC PRACTICE",
    "npi": "1215031554",
    "hcaiId": null,
    "businessName": "OROVILLE HOSPITAL",
    "contactEmail": null,
    "categoryName": "PRIMARY CARE CLINIC",
    "categoryCode": "RHC/OP",
    "licenseStatus": "ACTIVE",
    "inService": true,
    "licenseNumber": "230000022",
    "licenseEffectiveDate": "01/01/2025",
    "licenseExpirationDate": "12/31/2025",
    "dataDate": "10/18/2025",
    "capacity": 0,
    "address": "2809 OLIVE HWY, SUITE 270",
    "city": "OROVILLE",
    "zip": "95966",
    "county": "BUTTE",
    "phone": "(530) 533-4422",
    "lat": 39.504474,
    "lng": -121.54059
  },
  {
    "id": "630013541",
    "name": "OROVILLE WOMEN'S HEALTH",
    "npi": "1538437355",
    "hcaiId": null,
    "businessName": "OROVILLE HOSPITAL",
    "contactEmail": null,
    "categoryName": "PRIMARY CARE CLINIC",
    "categoryCode": "RHC/OP",
    "licenseStatus": "ACTIVE",
    "inService": true,
    "licenseNumber": "230000022",
    "licenseEffectiveDate": "01/01/2025",
    "licenseExpirationDate": "12/31/2025",
    "dataDate": "10/18/2025",
    "capacity": 0,
    "address": "2809 OLIVE HWY, SUITE 310 & 320",
    "city": "OROVILLE",
    "zip": "95966",
    "county": "BUTTE",
    "phone": "(530) 532-8636",
    "lat": 39.504474,
    "lng": -121.54059
  },
  {
    "id": "230000798",
    "name": "PEDIATRIC PRACTICE ASSOCIATES",
    "npi": "1598869828",
    "hcaiId": null,
    "businessName": "OROVILLE HOSPITAL",
    "contactEmail": null,
    "categoryName": "PRIMARY CARE CLINIC",
    "categoryCode": "RHC/OP",
    "licenseStatus": "ACTIVE",
    "inService": true,
    "licenseNumber": "230000022",
    "licenseEffectiveDate": "01/01/2025",
    "licenseExpirationDate": "12/31/2025",
    "dataDate": "10/18/2025",
    "capacity": 0,
    "address": "2809 OLIVE HWY, SUITE 330",
    "city": "OROVILLE",
    "zip": "95966",
    "county": "BUTTE",
    "phone": "(530) 533-0774",
    "lat": 39.504474,
    "lng": -121.54059
  },
  {
    "id": "630019118",
    "name": "PREMIER HEALTH PRACTICE",
    "npi": null,
    "hcaiId": null,
    "businessName": "OROVILLE HOSPITAL",
    "contactEmail": null,
    "categoryName": "PRIMARY CARE CLINIC",
    "categoryCode": "RHC/OP",
    "licenseStatus": "ACTIVE",
    "inService": true,
    "licenseNumber": "230000022",
    "licenseEffectiveDate": "01/01/2025",
    "licenseExpirationDate": "12/31/2025",
    "dataDate": "10/18/2025",
    "capacity": 0,
    "address": "3579 ORO DAM BLVD E, SUITE A&B",
    "city": "OROVILLE",
    "zip": "95966",
    "county": "BUTTE",
    "phone": null,
    "lat": 39.51747025,
    "lng": -121.5344804
  },
  {
    "id": "630006301",
    "name": "RIGOBERTO 0 GUTIERREZ, MD",
    "npi": "1124023254",
    "hcaiId": null,
    "businessName": null,
    "contactEmail": null,
    "categoryName": "PRIMARY CARE CLINIC",
    "categoryCode": "RHC/MD",
    "licenseStatus": null,
    "inService": null,
    "licenseNumber": null,
    "licenseEffectiveDate": null,
    "licenseExpirationDate": null,
    "dataDate": "10/18/2025",
    "capacity": 0,
    "address": "2809 OLIVE HWY, SUITE 370",
    "city": "OROVILLE",
    "zip": "95966",
    "county": "BUTTE",
    "phone": "(530) 538-9410",
    "lat": 39.504744,
    "lng": -121.5407205
  }
]