[
  {
    "id": "230000257",
    "name": "AMPLA HEALTH LINDHURST MEDICAL & DENTAL",
    "npi": "1801829296",
    "hcaiId": "306582254",
    "businessName": "AMPLA HEALTH",
    "contactEmail": "GNIETO@AMPLAHEALTH.ORG",
    "categoryName": "PRIMARY CARE CLINIC",
    "categoryCode": "COMTYC",
    "licenseStatus": "ACTIVE",
    "inService": true,
    "licenseNumber": "230000147",
    "licenseEffectiveDate": "11/21/2024",
    "licenseExpirationDate": "11/20/2025",
    "dataDate": "10/18/2025",
    "capacity": 0,
    "address": "4941 OLIVEHURST AVE",
    "city": "OLIVEHURST",
    "zip": "95961",
    "county": "YUBA",
    "phone": "(530) 743-4611",
    "lat": 39.09726,
    "lng": -121.551129
  },
  {
    "id": "630027087",
    "name": "PEACH TREE LINDHURST HIGH SCHOOL",
    "npi": null,
    "hcaiId": null,
    "businessName": "PEACH TREE HEALTHCARE",
    "contactEmail": null,
    "categoryName": "PRIMARY CARE CLINIC",
    "categoryCode": "COMTYC",
    "licenseStatus": "ACTIVE",
    "inService": true,
    "licenseNumber": "550006459",
    "licenseEffectiveDate": "07/08/2025",
    "licenseExpirationDate": "07/07/2026",
    "dataDate": "10/18/2025",
    "capacity": 0,
    "address": "4446 OLIVE AVE, BUILDING P-5",
    "city": "OLIVEHURST",
    "zip": "95961",
    "county": "YUBA",
    "phone": null,
    "lat": 39.083526,
    "lng": -121.538422
  },
  {
    "id": "630024435",
    "name": "RIDGELINE PEDIATRIC - OLIVEHURST",
    "npi": null,
    "hcaiId": null,
    "businessName": "CROSSPEAKS SERVICES, INC.",
    "contactEmail": "MLYMAN@RIDGELINEPEDIATRIC.COM",
    "categoryName": "PEDIATRIC DAY HEALTH & RESPITE CARE FACILITY",
    "categoryCode": "PDHRCF",
    "licenseStatus": "ACTIVE",
    "inService": true,
    "licenseNumber": "550007203",
    "licenseEffectiveDate": "11/19/2024",
    "licenseExpirationDate": "11/18/2025",
    "dataDate": "10/18/2025",
    "capacity": 6,
    "address": "4113 MCALISTER CT",
    "city": "OLIVEHURST",
    "zip": "95961",
    "county": "YUBA",
    "phone": "(530) 802-0749",
    "lat": 39.073104,
    "lng": -121.561821
  }
]