[
  {
    "id": "630027665",
    "name": "AMPLA HEALTH NORTH CHICO MEDICAL",
    "npi": "1255350351",
    "hcaiId": null,
    "businessName": "AMPLA HEALTH",
    "contactEmail": null,
    "categoryName": "PRIMARY CARE CLINIC",
    "categoryCode": "COMTYC",
    "licenseStatus": "ACTIVE",
    "inService": true,
    "licenseNumber": "230000189",
    "licenseEffectiveDate": "03/18/2025",
    "licenseExpirationDate": "11/23/2025",
    "dataDate": "10/18/2025",
    "capacity": 0,
    "address": "100 INDEPENDENCE CIR",
    "city": "CHICO",
    "zip": "95973",
    "county": "BUTTE",
    "phone": null,
    "lat": 39.772709,
    "lng": -121.873371
  },
  {
    "id": "230000052",
    "name": "BUTTE HOME HEALTH AND HOSPICE",
    "npi": "1568492700",
    "hcaiId": "406042326",
    "businessName": "BUTTE HOME HEALTH, INC.",
    "contactEmail": "RLOVE@BUTTEHH.ORG",
    "categoryName": "HOME HEALTH AGENCY",
    "categoryCode": "HHA",
    "licenseStatus": "ACTIVE",
    "inService": true,
    "licenseNumber": "230000082",
    "licenseEffectiveDate": "01/03/2025",
    "licenseExpirationDate": "01/02/2026",
    "dataDate": "10/18/2025",
    "capacity": 0,
    "address": "10 CONSTITUTION DR",
    "city": "CHICO",
    "zip": "95973",
    "county": "BUTTE",
    "phone": "(530) 895-0462",
    "lat": 39.771432,
    "lng": -121.873779
  },
  {
    "id": "230000228",
    "name": "BUTTE HOME HEALTH HOSPICE",
    "npi": null,
    "hcaiId": null,
    "businessName": null,
    "contactEmail": null,
    "categoryName": "HOSPICE",
    "categoryCode": "HOSPICE",
    "licenseStatus": null,
    "inService": null,
    "licenseNumber": null,
    "licenseEffectiveDate": null,
    "licenseExpirationDate": null,
    "dataDate": "10/18/2025",
    "capacity": 0,
    "address": "10 CONSTITUTION DR",
    "city": "CHICO",
    "zip": "95973",
    "county": "BUTTE",
    "phone": "(530) 895-0462",
    "lat": 39.771432,
    "lng": -121.873779
  },
  {
    "id": "230000423",
    "name": "HOME HEALTH CARE MANAGEMENT, INC.",
    "npi": "1447253943",
    "hcaiId": "406044012",
    "businessName": "HOME HEALTH CARE MANAGEMENT, INC.",
    "contactEmail": "BHANNA@HOMEANDHEALTHCAREMGMT.COM",
    "categoryName": "HOME HEALTH AGENCY",
    "categoryCode": "HHA",
    "licenseStatus": "ACTIVE",
    "inService": true,
    "licenseNumber": "230000185",
    "licenseEffectiveDate": "11/08/2024",
    "licenseExpirationDate": "11/07/2025",
    "dataDate": "10/18/2025",
    "capacity": 0,
    "address": "1398 RIDGEWOOD DR",
    "city": "CHICO",
    "zip": "95973",
    "county": "BUTTE",
    "phone": "(530) 343-0727",
    "lat": 39.775491,
    "lng": -121.838859
  },
  {
    "id": "230000682",
    "name": "MERAKEY - ARCH",
    "npi": "1184327165",
    "hcaiId": null,
    "businessName": "MERAKEY ALLOS",
    "contactEmail": "GARY.WONDRA@MERAKEY.ORG",
    "categoryName": "INTERMEDIATE CARE FACILITY-DD/H/N/CN/IID",
    "categoryCode": "ICFDDN",
    "licenseStatus": "ACTIVE",
    "inService": true,
    "licenseNumber": "230000294",
    "licenseEffectiveDate": "06/19/2025",
    "licenseExpirationDate": "06/18/2026",
    "dataDate": "10/18/2025",
    "capacity": 6,
    "address": "1494 ARCH WAY",
    "city": "CHICO",
    "zip": "95973",
    "county": "BUTTE",
    "phone": "(530) 222-5633",
    "lat": 39.763206,
    "lng": -121.815558
  },
  {
    "id": "230000778",
    "name": "MERAKEY - KELSEY",
    "npi": "1043913031",
    "hcaiId": null,
    "businessName": "MERAKEY ALLOS",
    "contactEmail": "GARY.WONDRA@MERAKEY.ORG",
    "categoryName": "INTERMEDIATE CARE FACILITY-DD/H/N/CN/IID",
    "categoryCode": "ICFDDH",
    "licenseStatus": "ACTIVE",
    "inService": true,
    "licenseNumber": "230000340",
    "licenseEffectiveDate": "06/10/2025",
    "licenseExpirationDate": "06/09/2026",
    "dataDate": "10/18/2025",
    "capacity": 6,
    "address": "13961 KELSEY DR",
    "city": "CHICO",
    "zip": "95973",
    "county": "BUTTE",
    "phone": "(530) 222-5633",
    "lat": 39.810447,
    "lng": -121.885956
  },
  {
    "id": "230000633",
    "name": "MERAKEY - TOM POLK",
    "npi": "1841993656",
    "hcaiId": null,
    "businessName": "MERAKEY ALLOS",
    "contactEmail": "GARY.WONDRA@MERAKEY.ORG",
    "categoryName": "INTERMEDIATE CARE FACILITY-DD/H/N/CN/IID",
    "categoryCode": "ICFDDH",
    "licenseStatus": "ACTIVE",
    "inService": true,
    "licenseNumber": "230000277",
    "licenseEffectiveDate": "02/18/2025",
    "licenseExpirationDate": "02/17/2026",
    "dataDate": "10/18/2025",
    "capacity": 6,
    "address": "65 TOM POLK CIR",
    "city": "CHICO",
    "zip": "95973",
    "county": "BUTTE",
    "phone": "(530) 222-5633",
    "lat": 39.763287,
    "lng": -121.8562155
  },
  {
    "id": "630017413",
    "name": "PEACH TREE CHICO EYE CENTER",
    "npi": null,
    "hcaiId": null,
    "businessName": null,
    "contactEmail": null,
    "categoryName": "PRIMARY CARE CLINIC",
    "categoryCode": "COMTYC",
    "licenseStatus": null,
    "inService": null,
    "licenseNumber": null,
    "licenseEffectiveDate": null,
    "licenseExpirationDate": null,
    "dataDate": "10/18/2025",
    "capacity": 0,
    "address": "120 INDEPENDENCE CIR, SUITE A",
    "city": "CHICO",
    "zip": "95973",
    "county": "BUTTE",
    "phone": "(530) 741-6245",
    "lat": 39.772449,
    "lng": -121.874166
  },
  {
    "id": "230000092",
    "name": "PLANNED PARENTHOOD OF THE NORTH VALLEY - CHICO CTR.",
    "npi": "1558420695",
    "hcaiId": "306044173",
    "businessName": "PLANNED PARENTHOOD: SHASTA-DIABLO, INC.",
    "contactEmail": null,
    "categoryName": "PRIMARY CARE CLINIC",
    "categoryCode": "COMTYC",
    "licenseStatus": "ACTIVE",
    "inService": true,
    "licenseNumber": "230000101",
    "licenseEffectiveDate": "12/07/2024",
    "licenseExpirationDate": "12/06/2025",
    "dataDate": "10/18/2025",
    "capacity": 0,
    "address": "3100 COHASSET RD",
    "city": "CHICO",
    "zip": "95973",
    "county": "BUTTE",
    "phone": "(707) 502-3021",
    "lat": 39.771864,
    "lng": -121.843134
  },
  {
    "id": "110001193",
    "name": "RAI - CERES AVE - CHICO",
    "npi": "1164596490",
    "hcaiId": "306044024",
    "businessName": "RAI CARE CENTERS OF NORTHERN CALIFORNIA I, LLC",
    "contactEmail": "CLINIC7102@FMC-NA.COM",
    "categoryName": "CHRONIC DIALYSIS CLINIC",
    "categoryCode": "ESRD/CDC",
    "licenseStatus": "ACTIVE",
    "inService": true,
    "licenseNumber": "110000482",
    "licenseEffectiveDate": "04/01/2025",
    "licenseExpirationDate": "03/31/2026",
    "dataDate": "10/18/2025",
    "capacity": 20,
    "address": "3011 CERES AVE, SUITE 125",
    "city": "CHICO",
    "zip": "95973",
    "county": "BUTTE",
    "phone": "(530) 343-5279",
    "lat": 39.776121,
    "lng": -121.838877
  },
  {
    "id": "630022092",
    "name": "VALLEY VIEW HEALTHCARE SERVICES, LLC",
    "npi": null,
    "hcaiId": "406043426",
    "businessName": "VALLEY VIEW HEALTHCARE SERVICES, LLC",
    "contactEmail": "ZSMITH@VVHCS.COM",
    "categoryName": "HOME HEALTH AGENCY",
    "categoryCode": "HHA",
    "licenseStatus": "ACTIVE",
    "inService": true,
    "licenseNumber": "550006907",
    "licenseEffectiveDate": "09/27/2025",
    "licenseExpirationDate": "09/26/2026",
    "dataDate": "10/18/2025",
    "capacity": 0,
    "address": "120 INDEPENDENCE CIR, SUITE G",
    "city": "CHICO",
    "zip": "95973",
    "county": "BUTTE",
    "phone": "(530) 513-5892",
    "lat": 39.772485,
    "lng": -121.87422
  },
  {
    "id": "630022719",
    "name": "VALLEY VIEW HOSPICE & PALLIATIVE CARE, LLC",
    "npi": null,
    "hcaiId": "406040020",
    "businessName": "VALLEY VIEW HOSPICE & PALLIATIVE CARE, LLC",
    "contactEmail": "JONBLISS@VVHOSPICE.COM",
    "categoryName": "HOSPICE",
    "categoryCode": "HOSPICE",
    "licenseStatus": "ACTIVE",
    "inService": true,
    "licenseNumber": "550008841",
    "licenseEffectiveDate": "10/30/2025",
    "licenseExpirationDate": "10/29/2027",
    "dataDate": "10/18/2025",
    "capacity": 0,
    "address": "120 INDEPENDENCE CIR, SUITE A",
    "city": "CHICO",
    "zip": "95973",
    "county": "BUTTE",
    "phone": "(530) 206-8259",
    "lat": 39.772485,
    "lng": -121.87422
  }
]