[
  {
    "id": "230000015",
    "name": "PLUMAS DISTRICT HOSPITAL",
    "npi": "1326094269",
    "hcaiId": "106320986",
    "businessName": "PLUMAS HOSPITAL DISTRICT",
    "contactEmail": null,
    "categoryName": "GENERAL ACUTE CARE HOSPITAL",
    "categoryCode": "GACH",
    "licenseStatus": "ACTIVE",
    "inService": true,
    "licenseNumber": "230000030",
    "licenseEffectiveDate": "11/01/2025",
    "licenseExpirationDate": "10/31/2026",
    "dataDate": "10/18/2025",
    "capacity": 16,
    "address": "1065 BUCKS LAKE RD",
    "city": "QUINCY",
    "zip": "95971",
    "county": "PLUMAS",
    "phone": "(530) 283-7127",
    "lat": 39.939318,
    "lng": -120.9621015
  },
  {
    "id": "630028563",
    "name": "PLUMAS DISTRICT HOSPITAL D/P SNF",
    "npi": null,
    "hcaiId": null,
    "businessName": "PLUMAS HOSPITAL DISTRICT",
    "contactEmail": null,
    "categoryName": "SKILLED NURSING FACILITY",
    "categoryCode": "SNF",
    "licenseStatus": "ACTIVE",
    "inService": true,
    "licenseNumber": "230000030",
    "licenseEffectiveDate": "11/01/2025",
    "licenseExpirationDate": "10/31/2026",
    "dataDate": "10/18/2025",
    "capacity": 36,
    "address": "1065 BUCKS LAKE RD",
    "city": "QUINCY",
    "zip": "95971",
    "county": "PLUMAS",
    "phone": null,
    "lat": 39.939723,
    "lng": -120.9617145
  },
  {
    "id": "230000453",
    "name": "PLUMAS RURAL HEALTH CENTER",
    "npi": "1043348543",
    "hcaiId": null,
    "businessName": "PLUMAS HOSPITAL DISTRICT",
    "contactEmail": null,
    "categoryName": "PRIMARY CARE CLINIC",
    "categoryCode": "RHC/OP",
    "licenseStatus": "ACTIVE",
    "inService": true,
    "licenseNumber": "230000030",
    "licenseEffectiveDate": "11/01/2025",
    "licenseExpirationDate": "10/31/2026",
    "dataDate": "10/18/2025",
    "capacity": 0,
    "address": "1065 BUCKS LAKE RD",
    "city": "QUINCY",
    "zip": "95971",
    "county": "PLUMAS",
    "phone": "(530) 283-5640",
    "lat": 39.939318,
    "lng": -120.9621015
  },
  {
    "id": "230000823",
    "name": "QUINCY HOME MEDICAL SERVICE LLC",
    "npi": "1306873351",
    "hcaiId": "406324004",
    "businessName": "QUINCY HOME MEDICAL SERVICE LLC",
    "contactEmail": "WALMER98@GMAIL.COM",
    "categoryName": "HOME HEALTH AGENCY",
    "categoryCode": "HHA",
    "licenseStatus": "ACTIVE",
    "inService": true,
    "licenseNumber": "230000356",
    "licenseEffectiveDate": "01/26/2025",
    "licenseExpirationDate": "01/25/2026",
    "dataDate": "10/18/2025",
    "capacity": 0,
    "address": "535 LAWRENCE ST",
    "city": "QUINCY",
    "zip": "95971",
    "county": "PLUMAS",
    "phone": "(530) 927-7087",
    "lat": 39.937887,
    "lng": -120.948309
  }
]