[
  {
    "id": "230000369",
    "name": "FAMILY CARE CENTER",
    "npi": "1306481742",
    "hcaiId": null,
    "businessName": "COLUSA MEDICAL CENTER, LLC",
    "contactEmail": null,
    "categoryName": "PRIMARY CARE CLINIC",
    "categoryCode": "RHC/OP",
    "licenseStatus": "ACTIVE",
    "inService": true,
    "licenseNumber": "230000149",
    "licenseEffectiveDate": "06/01/2025",
    "licenseExpirationDate": "11/29/2025",
    "dataDate": "10/18/2025",
    "capacity": 0,
    "address": "1133 W SYCAMORE ST",
    "city": "WILLOWS",
    "zip": "95988",
    "county": "GLENN",
    "phone": "(530) 934-1816",
    "lat": 39.521151,
    "lng": -122.208138
  },
  {
    "id": "230000747",
    "name": "GLENN FAMILY MEDICAL GROUP",
    "npi": "1649815077",
    "hcaiId": null,
    "businessName": "COLUSA MEDICAL CENTER, LLC",
    "contactEmail": null,
    "categoryName": "PRIMARY CARE CLINIC",
    "categoryCode": "RHC/OP",
    "licenseStatus": "ACTIVE",
    "inService": true,
    "licenseNumber": "230000149",
    "licenseEffectiveDate": "06/01/2025",
    "licenseExpirationDate": "11/29/2025",
    "dataDate": "10/18/2025",
    "capacity": 0,
    "address": "130 N ENRIGHT AVE",
    "city": "WILLOWS",
    "zip": "95988",
    "county": "GLENN",
    "phone": "(530) 934-4681",
    "lat": 39.521016,
    "lng": -122.207031
  },
  {
    "id": "230000006",
    "name": "GLENN MEDICAL CENTER",
    "npi": "1063054831",
    "hcaiId": "106110889",
    "businessName": "GLENN MEDICAL CENTER, LLC",
    "contactEmail": null,
    "categoryName": "GENERAL ACUTE CARE HOSPITAL",
    "categoryCode": "GACH",
    "licenseStatus": "ACTIVE",
    "inService": true,
    "licenseNumber": "230000018",
    "licenseEffectiveDate": "06/01/2025",
    "licenseExpirationDate": "10/31/2025",
    "dataDate": "10/18/2025",
    "capacity": 47,
    "address": "1133 W SYCAMORE ST",
    "city": "WILLOWS",
    "zip": "95988",
    "county": "GLENN",
    "phone": "(530) 934-1800",
    "lat": 39.521151,
    "lng": -122.208138
  },
  {
    "id": "630021192",
    "name": "NORTHERN VALLEY INDIAN HEALTH INC",
    "npi": null,
    "hcaiId": null,
    "businessName": "NORTHERN VALLEY INDIAN HEALTH, INC.",
    "contactEmail": "KATRINA.FLESHER@NVIH.ORG",
    "categoryName": "PRIMARY CARE CLINIC",
    "categoryCode": "COMTYC",
    "licenseStatus": "ACTIVE",
    "inService": true,
    "licenseNumber": "230000212",
    "licenseEffectiveDate": "12/07/2024",
    "licenseExpirationDate": "12/06/2025",
    "dataDate": "10/18/2025",
    "capacity": 0,
    "address": "207 N BUTTE ST",
    "city": "WILLOWS",
    "zip": "95988",
    "county": "GLENN",
    "phone": "(530) 330-8800",
    "lat": 39.522132,
    "lng": -122.195781
  },
  {
    "id": "230000492",
    "name": "NORTHERN VALLEY INDIAN HEALTH, INC.",
    "npi": null,
    "hcaiId": "306114003",
    "businessName": "NORTHERN VALLEY INDIAN HEALTH, INC.",
    "contactEmail": "NATALIE.HODGEN@NVIH.ORG",
    "categoryName": "PRIMARY CARE CLINIC",
    "categoryCode": "COMTYC",
    "licenseStatus": "ACTIVE",
    "inService": true,
    "licenseNumber": "230000212",
    "licenseEffectiveDate": "12/07/2024",
    "licenseExpirationDate": "12/06/2025",
    "dataDate": "10/18/2025",
    "capacity": 0,
    "address": "207 N BUTTE ST",
    "city": "WILLOWS",
    "zip": "95988",
    "county": "GLENN",
    "phone": "(530) 934-4641",
    "lat": 39.522132,
    "lng": -122.195781
  },
  {
    "id": "630012105",
    "name": "WILLOWS PEDIATRICS",
    "npi": "1366687964",
    "hcaiId": null,
    "businessName": null,
    "contactEmail": "MILA.DUENAS@WIPFLI.COM",
    "categoryName": "PRIMARY CARE CLINIC",
    "categoryCode": "RHC/MD",
    "licenseStatus": null,
    "inService": null,
    "licenseNumber": null,
    "licenseEffectiveDate": null,
    "licenseExpirationDate": null,
    "dataDate": "10/18/2025",
    "capacity": 0,
    "address": "263 N VILLA AVE",
    "city": "WILLOWS",
    "zip": "95988",
    "county": "GLENN",
    "phone": "(510) 404-3329",
    "lat": 39.52264283,
    "lng": -122.2089406
  },
  {
    "id": "230000044",
    "name": "WILLOWS POST ACUTE",
    "npi": "1124684378",
    "hcaiId": "206112227",
    "businessName": "320 NORTH CRAWFORD AVENUE OPERATIONS LLC",
    "contactEmail": "ADMINISTRATOR@WILLOWSCENTER.COM",
    "categoryName": "SKILLED NURSING FACILITY",
    "categoryCode": "SNF",
    "licenseStatus": "ACTIVE",
    "inService": true,
    "licenseNumber": "230000054",
    "licenseEffectiveDate": "11/07/2024",
    "licenseExpirationDate": "11/06/2025",
    "dataDate": "10/18/2025",
    "capacity": 79,
    "address": "320 N CRAWFORD ST",
    "city": "WILLOWS",
    "zip": "95988",
    "county": "GLENN",
    "phone": "(530) 934-2834",
    "lat": 39.523644,
    "lng": -122.2056585
  }
]