[
  {
    "id": "230000571",
    "name": "FEATHER RIVER TRIBAL HEALTH, INC. YUBA CITY OFFICE",
    "npi": "1588826374",
    "hcaiId": "306514045",
    "businessName": "FEATHER RIVER TRIBAL HEALTH, INC.",
    "contactEmail": "ERIK.LYON@FRTH.ORG",
    "categoryName": "PRIMARY CARE CLINIC",
    "categoryCode": "COMTYC",
    "licenseStatus": "ACTIVE",
    "inService": true,
    "licenseNumber": "230000265",
    "licenseEffectiveDate": "06/09/2025",
    "licenseExpirationDate": "06/08/2026",
    "dataDate": "10/18/2025",
    "capacity": 0,
    "address": "555 W ONSTOTT RD",
    "city": "YUBA CITY",
    "zip": "95993",
    "county": "SUTTER",
    "phone": "(530) 751-8454",
    "lat": 39.12981396,
    "lng": -121.6349194
  },
  {
    "id": "630017332",
    "name": "PEACH TREE - YUBA CITY/COLUSA",
    "npi": null,
    "hcaiId": "306514050",
    "businessName": "PEACH TREE HEALTHCARE",
    "contactEmail": "MSINGH@PICKPEACH.ORG",
    "categoryName": "PRIMARY CARE CLINIC",
    "categoryCode": "COMTYC",
    "licenseStatus": "ACTIVE",
    "inService": true,
    "licenseNumber": "550006459",
    "licenseEffectiveDate": "07/08/2025",
    "licenseExpirationDate": "07/07/2026",
    "dataDate": "10/18/2025",
    "capacity": 0,
    "address": "1275 THARP RD",
    "city": "YUBA CITY",
    "zip": "95993",
    "county": "SUTTER",
    "phone": "(530) 749-3242",
    "lat": 39.14559,
    "lng": -121.6480905
  },
  {
    "id": "230000560",
    "name": "RCCA - AUGUSTA LANE #2",
    "npi": "1215063136",
    "hcaiId": null,
    "businessName": "RES-CARE CALIFORNIA, INC.",
    "contactEmail": null,
    "categoryName": "INTERMEDIATE CARE FACILITY-DD/H/N/CN/IID",
    "categoryCode": "ICFDDN",
    "licenseStatus": "ACTIVE",
    "inService": true,
    "licenseNumber": "230000250",
    "licenseEffectiveDate": "11/26/2024",
    "licenseExpirationDate": "11/25/2025",
    "dataDate": "10/18/2025",
    "capacity": 6,
    "address": "1948 AUGUSTA LN",
    "city": "YUBA CITY",
    "zip": "95993",
    "county": "SUTTER",
    "phone": "(530) 755-2609",
    "lat": 39.104802,
    "lng": -121.6512495
  },
  {
    "id": "230000563",
    "name": "RCCA AUGUSTA LANE #1",
    "npi": "1316072622",
    "hcaiId": null,
    "businessName": "RES-CARE CALIFORNIA, INC.",
    "contactEmail": null,
    "categoryName": "INTERMEDIATE CARE FACILITY-DD/H/N/CN/IID",
    "categoryCode": "ICFDDN",
    "licenseStatus": "ACTIVE",
    "inService": true,
    "licenseNumber": "230000249",
    "licenseEffectiveDate": "11/26/2024",
    "licenseExpirationDate": "11/25/2025",
    "dataDate": "10/18/2025",
    "capacity": 6,
    "address": "1775 AUGUSTA LN",
    "city": "YUBA CITY",
    "zip": "95993",
    "county": "SUTTER",
    "phone": "(530) 755-3027",
    "lat": 39.104883,
    "lng": -121.646529
  },
  {
    "id": "630015438",
    "name": "RIDGELINE PEDIATRIC - YUBA CITY",
    "npi": null,
    "hcaiId": null,
    "businessName": "CROSSPEAKS SERVICES, INC.",
    "contactEmail": "YUBACITY@RIDGELINEPEDIATRIC.COM",
    "categoryName": "PEDIATRIC DAY HEALTH & RESPITE CARE FACILITY",
    "categoryCode": "PDHRCF",
    "licenseStatus": "ACTIVE",
    "inService": true,
    "licenseNumber": "550002883",
    "licenseEffectiveDate": "11/24/2024",
    "licenseExpirationDate": "11/23/2025",
    "dataDate": "10/18/2025",
    "capacity": 6,
    "address": "1350 TEAL HOLLOW DRIVE",
    "city": "YUBA CITY",
    "zip": "95993",
    "county": "SUTTER",
    "phone": "(530) 923-4717",
    "lat": 39.146256,
    "lng": -121.6792305
  }
]