[
  {
    "id": "230000537",
    "name": "A WOMAN'S FRIEND PREGNANCY RESOURCE CLINIC",
    "npi": null,
    "hcaiId": "306510426",
    "businessName": "A WOMAN'S FRIEND PREGNANCY RESOURCE CLINIC",
    "contactEmail": "KRISTEN@AWOMANSFRIEND.ORG",
    "categoryName": "PRIMARY CARE CLINIC",
    "categoryCode": "COMTYC",
    "licenseStatus": "ACTIVE",
    "inService": true,
    "licenseNumber": "230000235",
    "licenseEffectiveDate": "12/19/2024",
    "licenseExpirationDate": "12/18/2025",
    "dataDate": "10/18/2025",
    "capacity": 0,
    "address": "961 LIVE OAK BLVD",
    "city": "YUBA CITY",
    "zip": "95991",
    "county": "SUTTER",
    "phone": "(530) 741-9136",
    "lat": 39.143016,
    "lng": -121.620519
  },
  {
    "id": "630019287",
    "name": "ADVANCED HOME HEALTH, INC.",
    "npi": "1306069737",
    "hcaiId": "406512917",
    "businessName": "ADVANCED HOME HEALTH, INC",
    "contactEmail": "MMCGUIRE@AHH1.COM",
    "categoryName": "HOME HEALTH AGENCY",
    "categoryCode": "HHA",
    "licenseStatus": "ACTIVE",
    "inService": true,
    "licenseNumber": "100000439",
    "licenseEffectiveDate": "12/01/2024",
    "licenseExpirationDate": "11/30/2025",
    "dataDate": "10/18/2025",
    "capacity": 0,
    "address": "1528 PLUMAS CT, SUITE 300",
    "city": "YUBA CITY",
    "zip": "95991",
    "county": "SUTTER",
    "phone": "(530) 923-4162",
    "lat": 39.153123,
    "lng": -121.61889
  },
  {
    "id": "630019288",
    "name": "ADVANCED HOSPICE",
    "npi": "1194020073",
    "hcaiId": null,
    "businessName": "ADVANCED HOME HEALTH AND HOSPICE, INC.",
    "contactEmail": "INFO@AHH1.COM",
    "categoryName": "HOSPICE",
    "categoryCode": "HOSPICE",
    "licenseStatus": "ACTIVE",
    "inService": true,
    "licenseNumber": "550001702",
    "licenseEffectiveDate": "10/04/2025",
    "licenseExpirationDate": "10/03/2027",
    "dataDate": "10/18/2025",
    "capacity": 0,
    "address": "1528 PLUMAS CT, SUITE 400",
    "city": "YUBA CITY",
    "zip": "95991",
    "county": "SUTTER",
    "phone": "(916) 678-5807",
    "lat": 39.15315602,
    "lng": -121.618865
  },
  {
    "id": "230000499",
    "name": "ADVENTIST HEALTH HOME CARE SERVICES",
    "npi": "1639640089",
    "hcaiId": "406514034",
    "businessName": "WESTERN HEALTH RESOURCES",
    "contactEmail": "ROSENCD@AH.ORG",
    "categoryName": "HOME HEALTH AGENCY",
    "categoryCode": "HHA",
    "licenseStatus": "ACTIVE",
    "inService": true,
    "licenseNumber": "230000211",
    "licenseEffectiveDate": "11/10/2025",
    "licenseExpirationDate": "11/09/2026",
    "dataDate": "10/18/2025",
    "capacity": 0,
    "address": "1007 LIVE OAK BLVD, SUITE B3",
    "city": "YUBA CITY",
    "zip": "95991",
    "county": "SUTTER",
    "phone": "(530) 673-7100",
    "lat": 39.143736,
    "lng": -121.620312
  },
  {
    "id": "630027346",
    "name": "ADVENTIST HEALTH HOME CARE SERVICES - HOSPICE",
    "npi": null,
    "hcaiId": null,
    "businessName": "WESTERN HEALTH RESOURCES",
    "contactEmail": null,
    "categoryName": "HOSPICE",
    "categoryCode": "HOSPICE",
    "licenseStatus": "ACTIVE",
    "inService": true,
    "licenseNumber": "230000211",
    "licenseEffectiveDate": "11/10/2025",
    "licenseExpirationDate": "11/09/2026",
    "dataDate": "10/18/2025",
    "capacity": 0,
    "address": "1007 LIVE OAK BLVD, SUITE B3",
    "city": "YUBA CITY",
    "zip": "95991",
    "county": "SUTTER",
    "phone": null,
    "lat": 39.14367399,
    "lng": -121.620258
  },
  {
    "id": "630027615",
    "name": "AMPLA HEALTH NORTH PLUMAS MEDICAL",
    "npi": "1255350351",
    "hcaiId": null,
    "businessName": "AMPLA HEALTH",
    "contactEmail": "LGUZMAN@AMPLAHEALTH.ORG",
    "categoryName": "PRIMARY CARE CLINIC",
    "categoryCode": "COMTYC",
    "licenseStatus": "ACTIVE",
    "inService": true,
    "licenseNumber": "230000189",
    "licenseEffectiveDate": "03/18/2025",
    "licenseExpirationDate": "11/23/2025",
    "dataDate": "10/18/2025",
    "capacity": 0,
    "address": "1231 PLUMAS ST",
    "city": "YUBA CITY",
    "zip": "95991",
    "county": "SUTTER",
    "phone": "(530) 674-9200",
    "lat": 39.148406,
    "lng": -121.616702
  },
  {
    "id": "630027792",
    "name": "AMPLA HEALTH NORTH PLUMAS MEDICAL",
    "npi": null,
    "hcaiId": null,
    "businessName": "AMPLA HEALTH",
    "contactEmail": null,
    "categoryName": "PRIMARY CARE CLINIC",
    "categoryCode": "COMTYC",
    "licenseStatus": "ACTIVE",
    "inService": true,
    "licenseNumber": "230000189",
    "licenseEffectiveDate": "03/18/2025",
    "licenseExpirationDate": "11/23/2025",
    "dataDate": "10/18/2025",
    "capacity": 0,
    "address": "1234 PLUMAS ST",
    "city": "YUBA CITY",
    "zip": "95991",
    "county": "SUTTER",
    "phone": null,
    "lat": 39.14805512,
    "lng": -121.6176609
  },
  {
    "id": "230000411",
    "name": "AMPLA HEALTH RICHLAND MEDICAL",
    "npi": "1255350351",
    "hcaiId": "306514007",
    "businessName": "AMPLA HEALTH",
    "contactEmail": "LGUZMAN@AMPLAHEALTH.ORG",
    "categoryName": "PRIMARY CARE CLINIC",
    "categoryCode": "COMTYC",
    "licenseStatus": "ACTIVE",
    "inService": true,
    "licenseNumber": "230000189",
    "licenseEffectiveDate": "03/18/2025",
    "licenseExpirationDate": "11/23/2025",
    "dataDate": "10/18/2025",
    "capacity": 0,
    "address": "355 SAMUEL DR",
    "city": "YUBA CITY",
    "zip": "95991",
    "county": "SUTTER",
    "phone": "(530) 674-9200",
    "lat": 39.12307865,
    "lng": -121.609381
  },
  {
    "id": "630026916",
    "name": "AMPLA HEALTH TEST TO TREAT MOBILE UNIT",
    "npi": "1255350351",
    "hcaiId": null,
    "businessName": "AMPLA HEALTH",
    "contactEmail": null,
    "categoryName": "PRIMARY CARE CLINIC",
    "categoryCode": "COMTYC",
    "licenseStatus": "ACTIVE",
    "inService": true,
    "licenseNumber": "230000189",
    "licenseEffectiveDate": "03/18/2025",
    "licenseExpirationDate": "11/23/2025",
    "dataDate": "10/18/2025",
    "capacity": 0,
    "address": "355 SAMUEL DR",
    "city": "YUBA CITY",
    "zip": "95991",
    "county": "SUTTER",
    "phone": null,
    "lat": 39.12307865,
    "lng": -121.609381
  },
  {
    "id": "230000636",
    "name": "AMPLA HEALTH YUBA CITY",
    "npi": "1831115070",
    "hcaiId": "306514041",
    "businessName": "AMPLA HEALTH",
    "contactEmail": "SAMANI@AMPLAHEALTH.ORG",
    "categoryName": "PRIMARY CARE CLINIC",
    "categoryCode": "FQHC/COMTYC",
    "licenseStatus": "ACTIVE",
    "inService": true,
    "licenseNumber": "230000280",
    "licenseEffectiveDate": "06/01/2025",
    "licenseExpirationDate": "05/31/2026",
    "dataDate": "10/18/2025",
    "capacity": 0,
    "address": "1000 SUTTER ST",
    "city": "YUBA CITY",
    "zip": "95991",
    "county": "SUTTER",
    "phone": "(530) 673-9420",
    "lat": 39.144708,
    "lng": -121.6132695
  },
  {
    "id": "230000774",
    "name": "AMPLA HEALTH YUBA CITY PEDIATRICS",
    "npi": "1952326811",
    "hcaiId": "306514029",
    "businessName": "AMPLA HEALTH",
    "contactEmail": "LGUZMAN@AMPLAHEALTH.ORG",
    "categoryName": "PRIMARY CARE CLINIC",
    "categoryCode": "COMTYC",
    "licenseStatus": "ACTIVE",
    "inService": true,
    "licenseNumber": "230000337",
    "licenseEffectiveDate": "01/24/2025",
    "licenseExpirationDate": "01/23/2026",
    "dataDate": "10/18/2025",
    "capacity": 0,
    "address": "931 MARKET ST",
    "city": "YUBA CITY",
    "zip": "95991",
    "county": "SUTTER",
    "phone": "(530) 671-8820",
    "lat": 39.144852,
    "lng": -121.613922
  },
  {
    "id": "630015260",
    "name": "ASPIRE HOME HEALTHCARE OF NORTHERN CALIFORNIA, INC.",
    "npi": "1144645813",
    "hcaiId": "406514046",
    "businessName": "NIGHTINGALE HOME HEALTHCARE OF NORTHERN CALIFORNIA, INC.",
    "contactEmail": "DRDBRAR@HOMECAREFORYOU.COM",
    "categoryName": "HOME HEALTH AGENCY",
    "categoryCode": "HHA",
    "licenseStatus": "ACTIVE",
    "inService": true,
    "licenseNumber": "550003131",
    "licenseEffectiveDate": "06/23/2025",
    "licenseExpirationDate": "06/22/2026",
    "dataDate": "10/18/2025",
    "capacity": 0,
    "address": "545 FORBES AVE",
    "city": "YUBA CITY",
    "zip": "95991",
    "county": "SUTTER",
    "phone": "(530) 763-4795",
    "lat": 39.137868,
    "lng": -121.618098
  },
  {
    "id": "230000284",
    "name": "BRIDGEVIEW POST ACUTE",
    "npi": "1497223226",
    "hcaiId": "206511095",
    "businessName": "HANALEI HOLDING LLC",
    "contactEmail": "DAN@WESTHARBORHC.COM",
    "categoryName": "SKILLED NURSING FACILITY",
    "categoryCode": "SNF",
    "licenseStatus": "ACTIVE",
    "inService": true,
    "licenseNumber": "230000127",
    "licenseEffectiveDate": "09/24/2025",
    "licenseExpirationDate": "09/23/2026",
    "dataDate": "10/18/2025",
    "capacity": 130,
    "address": "521 LOREL WAY",
    "city": "YUBA CITY",
    "zip": "95991",
    "county": "SUTTER",
    "phone": "(530) 674-9140",
    "lat": 39.155724,
    "lng": -121.620618
  },
  {
    "id": "100001761",
    "name": "FREMONT-RIDEOUT HOME HEALTH/VALLEY HOSPICE",
    "npi": "1104885193",
    "hcaiId": null,
    "businessName": null,
    "contactEmail": null,
    "categoryName": "HOSPICE",
    "categoryCode": "HOSPICE",
    "licenseStatus": null,
    "inService": null,
    "licenseNumber": null,
    "licenseEffectiveDate": null,
    "licenseExpirationDate": null,
    "dataDate": "10/18/2025",
    "capacity": 0,
    "address": "939 LIVE OAK BLVD",
    "city": "YUBA CITY",
    "zip": "95991",
    "county": "SUTTER",
    "phone": "(530) 790-3006",
    "lat": 39.142044,
    "lng": -121.620312
  },
  {
    "id": "630018102",
    "name": "HARMONY HEALTH MEDICAL CLINIC AND FAMILY RESOURCE CENTER",
    "npi": null,
    "hcaiId": null,
    "businessName": "HARMONY HEALTH MEDICAL CLINIC AND FAMILY RESOURCE CENTER",
    "contactEmail": null,
    "categoryName": "PRIMARY CARE CLINIC",
    "categoryCode": "COMTYC",
    "licenseStatus": "ACTIVE",
    "inService": true,
    "licenseNumber": "550002538",
    "licenseEffectiveDate": "10/10/2025",
    "licenseExpirationDate": "10/09/2026",
    "dataDate": "10/18/2025",
    "capacity": 0,
    "address": "1215 PLUMAS ST, SUITE 1400",
    "city": "YUBA CITY",
    "zip": "95991",
    "county": "SUTTER",
    "phone": null,
    "lat": 39.147723,
    "lng": -121.6167615
  },
  {
    "id": "630018107",
    "name": "HARMONY HEALTH MEDICAL CLINIC AND FAMILY RESOURCE CENTER",
    "npi": null,
    "hcaiId": null,
    "businessName": "HARMONY HEALTH MEDICAL CLINIC AND FAMILY RESOURCE CENTER",
    "contactEmail": null,
    "categoryName": "PRIMARY CARE CLINIC",
    "categoryCode": "COMTYC",
    "licenseStatus": "ACTIVE",
    "inService": true,
    "licenseNumber": "550002538",
    "licenseEffectiveDate": "10/10/2025",
    "licenseExpirationDate": "10/09/2026",
    "dataDate": "10/18/2025",
    "capacity": 0,
    "address": "920 CHESTNUT ST",
    "city": "YUBA CITY",
    "zip": "95991",
    "county": "SUTTER",
    "phone": null,
    "lat": 39.14179537,
    "lng": -121.6199425
  },
  {
    "id": "230000258",
    "name": "PLANNED PARENTHOOD MAR MONTE - YUBA CITY HEALTH CENTER",
    "npi": null,
    "hcaiId": "306514002",
    "businessName": "PLANNED PARENTHOOD MAR MONTE, INC.",
    "contactEmail": null,
    "categoryName": "PRIMARY CARE CLINIC",
    "categoryCode": "COMTYC",
    "licenseStatus": "ACTIVE",
    "inService": true,
    "licenseNumber": "230000154",
    "licenseEffectiveDate": "11/01/2025",
    "licenseExpirationDate": "10/31/2026",
    "dataDate": "10/18/2025",
    "capacity": 0,
    "address": "430 N PALORA AVE, SUITE G",
    "city": "YUBA CITY",
    "zip": "95991",
    "county": "SUTTER",
    "phone": "(408) 795-3695",
    "lat": 39.128013,
    "lng": -121.6338615
  },
  {
    "id": "230000606",
    "name": "RCCA - RIVER OAKS",
    "npi": "1588790844",
    "hcaiId": null,
    "businessName": "RES-CARE CALIFORNIA, INC.",
    "contactEmail": "RMPHILLIPS@RESCARE.COM",
    "categoryName": "INTERMEDIATE CARE FACILITY-DD/H/N/CN/IID",
    "categoryCode": "ICFDDN",
    "licenseStatus": "ACTIVE",
    "inService": true,
    "licenseNumber": "230000276",
    "licenseEffectiveDate": "11/03/2025",
    "licenseExpirationDate": "11/02/2026",
    "dataDate": "10/18/2025",
    "capacity": 6,
    "address": "499 RIVER OAKS DR",
    "city": "YUBA CITY",
    "zip": "95991",
    "county": "SUTTER",
    "phone": "(530) 671-8368",
    "lat": 39.10338,
    "lng": -121.61574
  },
  {
    "id": "230000605",
    "name": "RCCA - WHITE OAKS",
    "npi": "1568598480",
    "hcaiId": null,
    "businessName": "RES-CARE CALIFORNIA, INC.",
    "contactEmail": null,
    "categoryName": "INTERMEDIATE CARE FACILITY-DD/H/N/CN/IID",
    "categoryCode": "ICFDDN",
    "licenseStatus": "ACTIVE",
    "inService": true,
    "licenseNumber": "230000275",
    "licenseEffectiveDate": "11/03/2025",
    "licenseExpirationDate": "11/02/2026",
    "dataDate": "10/18/2025",
    "capacity": 6,
    "address": "1805 WHITE OAK DR",
    "city": "YUBA CITY",
    "zip": "95991",
    "county": "SUTTER",
    "phone": "(530) 751-9077",
    "lat": 39.102867,
    "lng": -121.613202
  },
  {
    "id": "230000642",
    "name": "SUTTER CARE AT HOME",
    "npi": "1952707382",
    "hcaiId": "406514024",
    "businessName": "SUTTER VISITING NURSE ASSOCIATION AND HOSPICE",
    "contactEmail": "SVNAHREGULATORY@SUTTERHEALTH.ORG",
    "categoryName": "HOME HEALTH AGENCY",
    "categoryCode": "HHA",
    "licenseStatus": "ACTIVE",
    "inService": true,
    "licenseNumber": "230000278",
    "licenseEffectiveDate": "01/29/2025",
    "licenseExpirationDate": "01/28/2026",
    "dataDate": "10/18/2025",
    "capacity": 0,
    "address": "400 PLUMAS BLVD, SUITE 115B",
    "city": "YUBA CITY",
    "zip": "95991",
    "county": "SUTTER",
    "phone": "(707) 864-4840",
    "lat": 39.129984,
    "lng": -121.614968
  },
  {
    "id": "230000792",
    "name": "SUTTER CARE AT HOME",
    "npi": "1285031021",
    "hcaiId": "406514049",
    "businessName": "SUTTER VISITING NURSE ASSOCIATION AND HOSPICE",
    "contactEmail": "SVNAHREGULATORY@SUTTERHEALTH.ORG",
    "categoryName": "HOSPICE",
    "categoryCode": "HOSPICE",
    "licenseStatus": "ACTIVE",
    "inService": true,
    "licenseNumber": "550003323",
    "licenseEffectiveDate": "07/16/2024",
    "licenseExpirationDate": "01/28/2026",
    "dataDate": "10/18/2025",
    "capacity": 0,
    "address": "400 PLUMAS BLVD, SUITE 115A",
    "city": "YUBA CITY",
    "zip": "95991",
    "county": "SUTTER",
    "phone": "(530) 749-3510",
    "lat": 39.129984,
    "lng": -121.614968
  },
  {
    "id": "630001341",
    "name": "SUTTER NORTH SURGERY CENTER",
    "npi": "1144251521",
    "hcaiId": "306514032",
    "businessName": null,
    "contactEmail": null,
    "categoryName": "SURGICAL CLINIC",
    "categoryCode": "ASC",
    "licenseStatus": null,
    "inService": null,
    "licenseNumber": null,
    "licenseEffectiveDate": null,
    "licenseExpirationDate": null,
    "dataDate": "10/18/2025",
    "capacity": 0,
    "address": "460 PLUMAS BLVD, SUITE 202",
    "city": "YUBA CITY",
    "zip": "95991",
    "county": "SUTTER",
    "phone": "(530) 749-5515",
    "lat": 39.131343,
    "lng": -121.6151685
  },
  {
    "id": "630011844",
    "name": "SUTTER SURGICAL HOSPITAL - NORTH VALLEY",
    "npi": "1336333954",
    "hcaiId": "106514030",
    "businessName": "TWIN CITIES SURGICAL HOSPITAL LLC",
    "contactEmail": "DALE.STEAKLEY@SUTTERHEALTH.ORG",
    "categoryName": "GENERAL ACUTE CARE HOSPITAL",
    "categoryCode": "GACH",
    "licenseStatus": "ACTIVE",
    "inService": true,
    "licenseNumber": "550000989",
    "licenseEffectiveDate": "04/24/2025",
    "licenseExpirationDate": "04/23/2026",
    "dataDate": "10/18/2025",
    "capacity": 14,
    "address": "455 PLUMAS BLVD",
    "city": "YUBA CITY",
    "zip": "95991",
    "county": "SUTTER",
    "phone": "(530) 749-5715",
    "lat": 39.131604,
    "lng": -121.61295
  },
  {
    "id": "230000501",
    "name": "THE ENDOSCOPY CENTER",
    "npi": "1528462819",
    "hcaiId": "306514009",
    "businessName": null,
    "contactEmail": null,
    "categoryName": "SURGICAL CLINIC",
    "categoryCode": "ASC",
    "licenseStatus": "INACTIVE - CAPEN DECISION",
    "inService": false,
    "licenseNumber": "230000220",
    "licenseEffectiveDate": "03/08/2007",
    "licenseExpirationDate": "03/07/2008",
    "dataDate": "10/18/2025",
    "capacity": 0,
    "address": "870 SHASTA ST, SUITE 100",
    "city": "YUBA CITY",
    "zip": "95991",
    "county": "SUTTER",
    "phone": "(530) 671-3671",
    "lat": 39.14204022,
    "lng": -121.6161546
  },
  {
    "id": "230000370",
    "name": "THE FOUNTAINS",
    "npi": "1477552164",
    "hcaiId": "206514003",
    "businessName": "UNITED COM-SERVE",
    "contactEmail": "MICELIJ@AH.ORG",
    "categoryName": "SKILLED NURSING FACILITY",
    "categoryCode": "SNF",
    "licenseStatus": "ACTIVE",
    "inService": true,
    "licenseNumber": "230000176",
    "licenseEffectiveDate": "11/11/2025",
    "licenseExpirationDate": "11/10/2026",
    "dataDate": "10/18/2025",
    "capacity": 145,
    "address": "1260 WILLIAMS WAY",
    "city": "YUBA CITY",
    "zip": "95991",
    "county": "SUTTER",
    "phone": "(530) 790-3002",
    "lat": 39.149928,
    "lng": -121.632471
  },
  {
    "id": "110001192",
    "name": "YUBA CITY DIALYSIS CENTER",
    "npi": "1417252867",
    "hcaiId": "306514035",
    "businessName": "PLAINE DIALYSIS LLC",
    "contactEmail": "CAL_C@DAVITA.COM",
    "categoryName": "CHRONIC DIALYSIS CLINIC",
    "categoryCode": "ESRD/CDC",
    "licenseStatus": "ACTIVE",
    "inService": true,
    "licenseNumber": "110000481",
    "licenseEffectiveDate": "03/01/2025",
    "licenseExpirationDate": "02/28/2026",
    "dataDate": "10/18/2025",
    "capacity": 24,
    "address": "1525 PLUMAS CT, SUITE A",
    "city": "YUBA CITY",
    "zip": "95991",
    "county": "SUTTER",
    "phone": "(530) 671-3652",
    "lat": 39.153051,
    "lng": -121.617612
  },
  {
    "id": "230000275",
    "name": "YUBA CITY POST ACUTE",
    "npi": "1275923773",
    "hcaiId": "206510856",
    "businessName": "GUAVA HOLDINGS, LLC",
    "contactEmail": "JORIN.LARSEN@AUBURNOAKSCC.COM",
    "categoryName": "SKILLED NURSING FACILITY",
    "categoryCode": "SNF",
    "licenseStatus": "ACTIVE",
    "inService": true,
    "licenseNumber": "230000129",
    "licenseEffectiveDate": "12/16/2024",
    "licenseExpirationDate": "12/15/2025",
    "dataDate": "10/18/2025",
    "capacity": 59,
    "address": "1220 PLUMAS ST",
    "city": "YUBA CITY",
    "zip": "95991",
    "county": "SUTTER",
    "phone": "(530) 671-0550",
    "lat": 39.146283,
    "lng": -121.6191015
  },
  {
    "id": "110001197",
    "name": "YUBA SUTTER DIALYSIS",
    "npi": "1356351670",
    "hcaiId": "306514042",
    "businessName": "ARA - YUBA CITY DIALYSIS LLC",
    "contactEmail": "SHEILA.PRIMERO-CORPUZ@INNOVATIVERENAL.COM",
    "categoryName": "CHRONIC DIALYSIS CLINIC",
    "categoryCode": "ESRD/CDC",
    "licenseStatus": "ACTIVE",
    "inService": true,
    "licenseNumber": "110000490",
    "licenseEffectiveDate": "04/29/2025",
    "licenseExpirationDate": "04/28/2026",
    "dataDate": "10/18/2025",
    "capacity": 21,
    "address": "2115 E ONSTOTT RD",
    "city": "YUBA CITY",
    "zip": "95991",
    "county": "SUTTER",
    "phone": "(530) 673-6656",
    "lat": 39.161322,
    "lng": -121.634118
  }
]