[
  {
    "id": "230000621",
    "name": "ARVALO HOME - RIVERPARK",
    "npi": "1447847793",
    "hcaiId": null,
    "businessName": "ARVALO INC",
    "contactEmail": "ARVALOINCKDA@YAHOO.COM",
    "categoryName": "INTERMEDIATE CARE FACILITY-DD/H/N/CN/IID",
    "categoryCode": "ICFDDN",
    "licenseStatus": "ACTIVE",
    "inService": true,
    "licenseNumber": "230000271",
    "licenseEffectiveDate": "10/12/2025",
    "licenseExpirationDate": "10/11/2026",
    "dataDate": "10/18/2025",
    "capacity": 6,
    "address": "280 RIVER PARK DR",
    "city": "REDDING",
    "zip": "96003",
    "county": "SHASTA",
    "phone": "(530) 386-3731",
    "lat": 40.604283,
    "lng": -122.396616
  },
  {
    "id": "630027448",
    "name": "CARE NET PREGNANCY CENTER OF TRI-COUNTIES - NORTHSTATE CARE CLINIC MOBILE ULTRASOUND",
    "npi": null,
    "hcaiId": null,
    "businessName": "CRISIS PREGNANCY CENTER OF NORTHERN CALIFORNIA, INC.",
    "contactEmail": null,
    "categoryName": "PRIMARY CARE CLINIC",
    "categoryCode": "FREEC",
    "licenseStatus": "ACTIVE",
    "inService": true,
    "licenseNumber": "230000347",
    "licenseEffectiveDate": "11/23/2024",
    "licenseExpirationDate": "11/22/2025",
    "dataDate": "10/18/2025",
    "capacity": 0,
    "address": "19530 NATALIE WAY",
    "city": "REDDING",
    "zip": "96003",
    "county": "SHASTA",
    "phone": null,
    "lat": 40.67942301,
    "lng": -122.333619
  },
  {
    "id": "110001273",
    "name": "DCI - REDDING",
    "npi": "1942229182",
    "hcaiId": "306454049",
    "businessName": "DIALYSIS CLINIC, INC.",
    "contactEmail": "MICHELLE.HALLAM@DCIINC.ORG",
    "categoryName": "CHRONIC DIALYSIS CLINIC",
    "categoryCode": "ESRD/CDC",
    "licenseStatus": "ACTIVE",
    "inService": true,
    "licenseNumber": "110000523",
    "licenseEffectiveDate": "04/21/2025",
    "licenseExpirationDate": "04/20/2026",
    "dataDate": "10/18/2025",
    "capacity": 24,
    "address": "180 NORTHPOINT DR",
    "city": "REDDING",
    "zip": "96003",
    "county": "SHASTA",
    "phone": "(530) 246-1140",
    "lat": 40.612986,
    "lng": -122.3766675
  },
  {
    "id": "070001223",
    "name": "DIGNITY HEALTH CONNECTED LIVING",
    "npi": null,
    "hcaiId": null,
    "businessName": "DIGNITY HEALTH CONNECTED LIVING",
    "contactEmail": "KRISTINA.DEVAN@DIGNITYHEALTH.ORG",
    "categoryName": "ADULT DAY HEALTH CARE",
    "categoryCode": "ADHC",
    "licenseStatus": "ACTIVE",
    "inService": true,
    "licenseNumber": "070000559",
    "licenseEffectiveDate": "03/14/2025",
    "licenseExpirationDate": "03/13/2026",
    "dataDate": "10/18/2025",
    "capacity": 0,
    "address": "200 MERCY OAKS DR",
    "city": "REDDING",
    "zip": "96003",
    "county": "SHASTA",
    "phone": "(530) 226-3008",
    "lat": 40.617072,
    "lng": -122.329431
  },
  {
    "id": "630016331",
    "name": "HILL COUNTRY COMMUNITY CLINIC",
    "npi": null,
    "hcaiId": null,
    "businessName": null,
    "contactEmail": "ADMIN@HILLCOUNTRYCLINIC.ORG",
    "categoryName": "PRIMARY CARE CLINIC",
    "categoryCode": "FQHC",
    "licenseStatus": null,
    "inService": null,
    "licenseNumber": null,
    "licenseEffectiveDate": null,
    "licenseExpirationDate": null,
    "dataDate": "10/18/2025",
    "capacity": 0,
    "address": "317 LAKE BLVD.",
    "city": "REDDING",
    "zip": "96003",
    "county": "SHASTA",
    "phone": "(530) 337-5750",
    "lat": 40.611717,
    "lng": -122.3814195
  },
  {
    "id": "230000597",
    "name": "MERAKEY - HERBSCENTA",
    "npi": "1851094569",
    "hcaiId": null,
    "businessName": "MERAKEY ALLOS",
    "contactEmail": "ELIZABETH.SOWA@MERAKEY.ORG",
    "categoryName": "INTERMEDIATE CARE FACILITY-DD/H/N/CN/IID",
    "categoryCode": "ICFDDH",
    "licenseStatus": "ACTIVE",
    "inService": true,
    "licenseNumber": "230000261",
    "licenseEffectiveDate": "09/23/2025",
    "licenseExpirationDate": "09/22/2026",
    "dataDate": "10/18/2025",
    "capacity": 6,
    "address": "1916 HERBSCENTA LN",
    "city": "REDDING",
    "zip": "96003",
    "county": "SHASTA",
    "phone": "(530) 222-5633",
    "lat": 40.634577,
    "lng": -122.411232
  },
  {
    "id": "230000680",
    "name": "MERAKEY - OAK MESA",
    "npi": "1669175667",
    "hcaiId": null,
    "businessName": "MERAKEY ALLOS",
    "contactEmail": "GARY.WONDRA@MERAKEY.ORG",
    "categoryName": "INTERMEDIATE CARE FACILITY-DD/H/N/CN/IID",
    "categoryCode": "ICFDDN",
    "licenseStatus": "ACTIVE",
    "inService": true,
    "licenseNumber": "230000295",
    "licenseEffectiveDate": "08/28/2025",
    "licenseExpirationDate": "08/27/2026",
    "dataDate": "10/18/2025",
    "capacity": 6,
    "address": "1476 OAK MESA LN",
    "city": "REDDING",
    "zip": "96003",
    "county": "SHASTA",
    "phone": "(530) 222-5633",
    "lat": 40.586427,
    "lng": -122.3308485
  },
  {
    "id": "230000109",
    "name": "MERAKEY - OLD LANTERN",
    "npi": "1013610013",
    "hcaiId": null,
    "businessName": "MERAKEY ALLOS",
    "contactEmail": "ELIZABETH.SOWA@MERAKEY.ORG",
    "categoryName": "INTERMEDIATE CARE FACILITY-DD/H/N/CN/IID",
    "categoryCode": "ICFDDH",
    "licenseStatus": "ACTIVE",
    "inService": true,
    "licenseNumber": "230000096",
    "licenseEffectiveDate": "09/23/2025",
    "licenseExpirationDate": "09/22/2026",
    "dataDate": "10/18/2025",
    "capacity": 6,
    "address": "3329 OLD LANTERN DR",
    "city": "REDDING",
    "zip": "96003",
    "county": "SHASTA",
    "phone": "(530) 222-5633",
    "lat": 40.612518,
    "lng": -122.4133695
  },
  {
    "id": "230000780",
    "name": "MERAKEY - WILVERN",
    "npi": "1164125175",
    "hcaiId": null,
    "businessName": "MERAKEY ALLOS",
    "contactEmail": "KATHLEEN.STARRTHOMAS@MERAKEY.ORG",
    "categoryName": "INTERMEDIATE CARE FACILITY-DD/H/N/CN/IID",
    "categoryCode": "ICFDDN",
    "licenseStatus": "ACTIVE",
    "inService": true,
    "licenseNumber": "230000342",
    "licenseEffectiveDate": "06/02/2025",
    "licenseExpirationDate": "06/01/2026",
    "dataDate": "10/18/2025",
    "capacity": 6,
    "address": "11560 WILVERN LN",
    "city": "REDDING",
    "zip": "96003",
    "county": "SHASTA",
    "phone": "(530) 222-5633",
    "lat": 40.624011,
    "lng": -122.3475075
  },
  {
    "id": "230000366",
    "name": "QUARTZ HILL POST ACUTE",
    "npi": "1942722202",
    "hcaiId": "206454003",
    "businessName": "HONOLUA BAY HOLDINGS LLC",
    "contactEmail": "SCHURCH@WESTHARBORHC.COM",
    "categoryName": "SKILLED NURSING FACILITY",
    "categoryCode": "SNF",
    "licenseStatus": "ACTIVE",
    "inService": true,
    "licenseNumber": "230000168",
    "licenseEffectiveDate": "05/01/2025",
    "licenseExpirationDate": "04/30/2026",
    "dataDate": "10/18/2025",
    "capacity": 115,
    "address": "2120 BENTON DR",
    "city": "REDDING",
    "zip": "96003",
    "county": "SHASTA",
    "phone": "(530) 243-6317",
    "lat": 40.598631,
    "lng": -122.40063
  },
  {
    "id": "230000558",
    "name": "RESIDENTIAL MANAGEMENT SERVICES",
    "npi": "1548476906",
    "hcaiId": null,
    "businessName": "C.F.B. INC.",
    "contactEmail": "BRIBROWN345@YAHOO.COM",
    "categoryName": "INTERMEDIATE CARE FACILITY-DD/H/N/CN/IID",
    "categoryCode": "ICFDDN",
    "licenseStatus": "ACTIVE",
    "inService": true,
    "licenseNumber": "230000247",
    "licenseEffectiveDate": "01/10/2025",
    "licenseExpirationDate": "01/09/2026",
    "dataDate": "10/18/2025",
    "capacity": 6,
    "address": "11515 AMIR CT",
    "city": "REDDING",
    "zip": "96003",
    "county": "SHASTA",
    "phone": "(530) 246-3529",
    "lat": 40.622148,
    "lng": -122.3388
  },
  {
    "id": "630008841",
    "name": "SHASTA HOUSE",
    "npi": "1346428836",
    "hcaiId": null,
    "businessName": "C.F.B. INC.",
    "contactEmail": "BRIBROWN345@YAHOO.COM",
    "categoryName": "INTERMEDIATE CARE FACILITY-DD/H/N/CN/IID",
    "categoryCode": "ICFDDN",
    "licenseStatus": "ACTIVE",
    "inService": true,
    "licenseNumber": "550000517",
    "licenseEffectiveDate": "06/07/2025",
    "licenseExpirationDate": "06/06/2026",
    "dataDate": "10/18/2025",
    "capacity": 6,
    "address": "2550 OLD ALTURAS RD",
    "city": "REDDING",
    "zip": "96003",
    "county": "SHASTA",
    "phone": "(530) 221-0424",
    "lat": 40.588587,
    "lng": -122.32314
  }
]