[
  {
    "id": "230000743",
    "name": "APOGEE SURGERY CENTER",
    "npi": "1649603713",
    "hcaiId": "306454039",
    "businessName": null,
    "contactEmail": null,
    "categoryName": "SURGICAL CLINIC",
    "categoryCode": "ASC",
    "licenseStatus": "INACTIVE - CAPEN DECISION",
    "inService": false,
    "licenseNumber": "230000324",
    "licenseEffectiveDate": "11/18/2008",
    "licenseExpirationDate": "11/17/2009",
    "dataDate": "10/18/2025",
    "capacity": 0,
    "address": "1238 WEST ST",
    "city": "REDDING",
    "zip": "96001",
    "county": "SHASTA",
    "phone": "(530) 241-5499",
    "lat": 40.585437,
    "lng": -122.3987355
  },
  {
    "id": "230000775",
    "name": "ASSURED HOME HEALTH",
    "npi": "1801136213",
    "hcaiId": "406455911",
    "businessName": "LHCG XXXVIII, LLC",
    "contactEmail": "JASON.ROGERSON@LHCGROUP.COM",
    "categoryName": "HOME HEALTH AGENCY",
    "categoryCode": "HHA",
    "licenseStatus": "ACTIVE",
    "inService": true,
    "licenseNumber": "230000338",
    "licenseEffectiveDate": "09/18/2025",
    "licenseExpirationDate": "09/17/2026",
    "dataDate": "10/18/2025",
    "capacity": 0,
    "address": "2851 PARK MARINA DR, SUITE 150",
    "city": "REDDING",
    "zip": "96001",
    "county": "SHASTA",
    "phone": "(530) 247-0858",
    "lat": 40.573089,
    "lng": -122.373135
  },
  {
    "id": "230000789",
    "name": "CARENET PREGNANCY CENTER OF TRI COUNTIES",
    "npi": null,
    "hcaiId": "306451611",
    "businessName": "CRISIS PREGNANCY CENTER OF NORTHERN CALIFORNIA, INC.",
    "contactEmail": "WREASNER@NSCARECLINIC.ORG",
    "categoryName": "PRIMARY CARE CLINIC",
    "categoryCode": "FREEC",
    "licenseStatus": "ACTIVE",
    "inService": true,
    "licenseNumber": "230000347",
    "licenseEffectiveDate": "11/23/2024",
    "licenseExpirationDate": "11/22/2025",
    "dataDate": "10/18/2025",
    "capacity": 0,
    "address": "2460 ATHENS AVE",
    "city": "REDDING",
    "zip": "96001",
    "county": "SHASTA",
    "phone": "(530) 246-7075",
    "lat": 40.573962,
    "lng": -122.3769195
  },
  {
    "id": "230000753",
    "name": "COURT STREET SURGERY CENTER",
    "npi": "1629249172",
    "hcaiId": "306454040",
    "businessName": null,
    "contactEmail": null,
    "categoryName": "SURGICAL CLINIC",
    "categoryCode": "ASC",
    "licenseStatus": "INACTIVE - CAPEN DECISION",
    "inService": false,
    "licenseNumber": "230000328",
    "licenseEffectiveDate": "11/25/2007",
    "licenseExpirationDate": "11/24/2008",
    "dataDate": "10/18/2025",
    "capacity": 0,
    "address": "2184 COURT ST",
    "city": "REDDING",
    "zip": "96001",
    "county": "SHASTA",
    "phone": "(530) 246-4444",
    "lat": 40.576518,
    "lng": -122.3932995
  },
  {
    "id": "630018234",
    "name": "HILL COUNTRY HEALTH AND WELLNESS CENTER",
    "npi": null,
    "hcaiId": null,
    "businessName": "HILL COUNTRY COMMUNITY CLINIC",
    "contactEmail": null,
    "categoryName": "PRIMARY CARE CLINIC",
    "categoryCode": "COMTYC",
    "licenseStatus": "ACTIVE",
    "inService": true,
    "licenseNumber": "230000078",
    "licenseEffectiveDate": "02/28/2025",
    "licenseExpirationDate": "02/27/2026",
    "dataDate": "10/18/2025",
    "capacity": 0,
    "address": "1401 GOLD ST, SUITE A",
    "city": "REDDING",
    "zip": "96001",
    "county": "SHASTA",
    "phone": null,
    "lat": 40.579506,
    "lng": -122.389236
  },
  {
    "id": "230000589",
    "name": "INTERIM HEALTHCARE",
    "npi": "1245336056",
    "hcaiId": "406454057",
    "businessName": "INTERIM HEALTHCARE OF NORTHERN CALIFORNIA, INC.",
    "contactEmail": "REFERRAL@INTERIMHC.COM",
    "categoryName": "HOME HEALTH AGENCY",
    "categoryCode": "HHA",
    "licenseStatus": "ACTIVE",
    "inService": true,
    "licenseNumber": "230000258",
    "licenseEffectiveDate": "11/13/2025",
    "licenseExpirationDate": "05/28/2026",
    "dataDate": "10/18/2025",
    "capacity": 0,
    "address": "1647 COURT ST",
    "city": "REDDING",
    "zip": "96001",
    "county": "SHASTA",
    "phone": "(530) 221-1212",
    "lat": 40.58154,
    "lng": -122.394699
  },
  {
    "id": "630004621",
    "name": "INTERIM HEALTHCARE HOSPICE",
    "npi": "1336296516",
    "hcaiId": "406454055",
    "businessName": "INTERIM HEALTHCARE OF NORTHERN CALIFORNIA, INC.",
    "contactEmail": "REFERRAL@INTERIMHC.COM",
    "categoryName": "HOSPICE",
    "categoryCode": "HOSPICE",
    "licenseStatus": "ACTIVE",
    "inService": true,
    "licenseNumber": "550000130",
    "licenseEffectiveDate": "02/23/2024",
    "licenseExpirationDate": "02/22/2026",
    "dataDate": "10/18/2025",
    "capacity": 0,
    "address": "1647 COURT ST",
    "city": "REDDING",
    "zip": "96001",
    "county": "SHASTA",
    "phone": "(530) 722-1530",
    "lat": 40.58154,
    "lng": -122.394699
  },
  {
    "id": "230000468",
    "name": "MERAKEY - VALENTINE",
    "npi": "1437852142",
    "hcaiId": null,
    "businessName": "MERAKEY ALLOS",
    "contactEmail": "AMBER.BUXTON@MERAKEY.ORG",
    "categoryName": "INTERMEDIATE CARE FACILITY-DD/H/N/CN/IID",
    "categoryCode": "ICFDDH",
    "licenseStatus": "ACTIVE",
    "inService": true,
    "licenseNumber": "230000203",
    "licenseEffectiveDate": "05/24/2025",
    "licenseExpirationDate": "05/23/2026",
    "dataDate": "10/18/2025",
    "capacity": 6,
    "address": "2905 VALENTINE LN",
    "city": "REDDING",
    "zip": "96001",
    "county": "SHASTA",
    "phone": "(530) 222-5633",
    "lat": 40.564305,
    "lng": -122.378715
  },
  {
    "id": "230000057",
    "name": "MERCY HOME CARE",
    "npi": "1104944255",
    "hcaiId": "406452321",
    "businessName": "DIGNITY HEALTH",
    "contactEmail": "NANCY.HOWK900@COMMONSPIRIT.ORG",
    "categoryName": "HOME HEALTH AGENCY",
    "categoryCode": "HHA",
    "licenseStatus": "ACTIVE",
    "inService": true,
    "licenseNumber": "230000079",
    "licenseEffectiveDate": "11/28/2024",
    "licenseExpirationDate": "11/27/2025",
    "dataDate": "10/18/2025",
    "capacity": 0,
    "address": "1544 MARKET ST",
    "city": "REDDING",
    "zip": "96001",
    "county": "SHASTA",
    "phone": "(530) 245-4040",
    "lat": 40.583583,
    "lng": -122.3909415
  },
  {
    "id": "100001762",
    "name": "MERCY HOSPICE",
    "npi": null,
    "hcaiId": "406454048",
    "businessName": "DIGNITY HEALTH",
    "contactEmail": "NANCY.HOWK900@COMMONSPIRIT.ORG",
    "categoryName": "HOSPICE",
    "categoryCode": "HOSPICE",
    "licenseStatus": "ACTIVE",
    "inService": true,
    "licenseNumber": "100000778",
    "licenseEffectiveDate": "03/24/2024",
    "licenseExpirationDate": "03/23/2026",
    "dataDate": "10/18/2025",
    "capacity": 0,
    "address": "1544 MARKET ST",
    "city": "REDDING",
    "zip": "96001",
    "county": "SHASTA",
    "phone": "(530) 245-4070",
    "lat": 40.583583,
    "lng": -122.3909415
  },
  {
    "id": "230000010",
    "name": "MERCY MEDICAL CENTER REDDING",
    "npi": "1477671535",
    "hcaiId": "106450949",
    "businessName": "DIGNITY HEALTH",
    "contactEmail": "TODD.SMITH@DIGNITYHEALTH.ORG",
    "categoryName": "GENERAL ACUTE CARE HOSPITAL",
    "categoryCode": "GACH",
    "licenseStatus": "ACTIVE",
    "inService": true,
    "licenseNumber": "230000024",
    "licenseEffectiveDate": "11/02/2025",
    "licenseExpirationDate": "11/01/2026",
    "dataDate": "10/18/2025",
    "capacity": 266,
    "address": "2175 ROSALINE AVE",
    "city": "REDDING",
    "zip": "96001",
    "county": "SHASTA",
    "phone": "(530) 225-6000",
    "lat": 40.571973,
    "lng": -122.3952705
  },
  {
    "id": "230000818",
    "name": "MERCY SURGERY CENTER",
    "npi": "1700057254",
    "hcaiId": "306454047",
    "businessName": "NORTH STATE SURGERY CENTERS LP",
    "contactEmail": null,
    "categoryName": "SURGICAL CLINIC",
    "categoryCode": "ASC",
    "licenseStatus": "INACTIVE - CAPEN DECISION",
    "inService": false,
    "licenseNumber": "230000354",
    "licenseEffectiveDate": "01/05/2008",
    "licenseExpirationDate": "01/04/2009",
    "dataDate": "10/18/2025",
    "capacity": 0,
    "address": "2175 ROSALINE AVE, SUITE A",
    "city": "REDDING",
    "zip": "96001",
    "county": "SHASTA",
    "phone": "(530) 225-7400",
    "lat": 40.571973,
    "lng": -122.3952705
  },
  {
    "id": "230000444",
    "name": "PATIENTS' HOSPITAL OF REDDING",
    "npi": "1942204490",
    "hcaiId": "106454013",
    "businessName": null,
    "contactEmail": "JOLDS@PATIENTSHOSPITAL.COM",
    "categoryName": "GENERAL ACUTE CARE HOSPITAL",
    "categoryCode": "GACH",
    "licenseStatus": "ACTIVE",
    "inService": true,
    "licenseNumber": "230000195",
    "licenseEffectiveDate": "03/23/2025",
    "licenseExpirationDate": "03/22/2026",
    "dataDate": "10/18/2025",
    "capacity": 10,
    "address": "2900 EUREKA WAY",
    "city": "REDDING",
    "zip": "96001",
    "county": "SHASTA",
    "phone": "(530) 225-8700",
    "lat": 40.585914,
    "lng": -122.4167715
  },
  {
    "id": "110001189",
    "name": "REDDING DIALYSIS CENTER",
    "npi": "1740243831",
    "hcaiId": "306451269",
    "businessName": "TOTAL RENAL CARE, INC.",
    "contactEmail": "CAL_C@DAVITA.COM",
    "categoryName": "CHRONIC DIALYSIS CLINIC",
    "categoryCode": "ESRD/CDC",
    "licenseStatus": "ACTIVE",
    "inService": true,
    "licenseNumber": "110000478",
    "licenseEffectiveDate": "06/02/2025",
    "licenseExpirationDate": "06/01/2026",
    "dataDate": "10/18/2025",
    "capacity": 32,
    "address": "1876 PARK MARINA DR",
    "city": "REDDING",
    "zip": "96001",
    "county": "SHASTA",
    "phone": "(530) 246-7474",
    "lat": 40.58506101,
    "lng": -122.3756334
  },
  {
    "id": "230000632",
    "name": "REDDING ENDOSCOPY CENTER",
    "npi": "1114922192",
    "hcaiId": "306454031",
    "businessName": "GASTROENTEROLOGY ASSOCIATES ENDOSCOPY CENTER, LLC",
    "contactEmail": null,
    "categoryName": "SURGICAL CLINIC",
    "categoryCode": "ASC",
    "licenseStatus": "INACTIVE - CAPEN DECISION",
    "inService": false,
    "licenseNumber": "230000273",
    "licenseEffectiveDate": "01/23/2008",
    "licenseExpirationDate": "01/22/2009",
    "dataDate": "10/18/2025",
    "capacity": 0,
    "address": "2179 COURT ST",
    "city": "REDDING",
    "zip": "96001",
    "county": "SHASTA",
    "phone": "(530) 246-7000",
    "lat": 40.5766602,
    "lng": -122.3928947
  },
  {
    "id": "230000024",
    "name": "REDDING POST ACUTE",
    "npi": "1184167991",
    "hcaiId": "206450798",
    "businessName": "CALAFIA HOLDINGS LLC",
    "contactEmail": "METTE@WESTHARBORHC.COM",
    "categoryName": "SKILLED NURSING FACILITY",
    "categoryCode": "SNF",
    "licenseStatus": "ACTIVE",
    "inService": true,
    "licenseNumber": "230000004",
    "licenseEffectiveDate": "12/27/2024",
    "licenseExpirationDate": "12/26/2025",
    "dataDate": "10/18/2025",
    "capacity": 89,
    "address": "1836 GOLD ST",
    "city": "REDDING",
    "zip": "96001",
    "county": "SHASTA",
    "phone": "(530) 241-6756",
    "lat": 40.578894,
    "lng": -122.39478
  },
  {
    "id": "630028017",
    "name": "REDDING RANCHERIA CENTER FOR ADVANCED CARE",
    "npi": null,
    "hcaiId": null,
    "businessName": null,
    "contactEmail": null,
    "categoryName": "PRIMARY CARE CLINIC",
    "categoryCode": "FQHC",
    "licenseStatus": null,
    "inService": null,
    "licenseNumber": null,
    "licenseEffectiveDate": null,
    "licenseExpirationDate": null,
    "dataDate": "10/18/2025",
    "capacity": 0,
    "address": "3305 PLACER ST, SUITE B",
    "city": "REDDING",
    "zip": "96001",
    "county": "SHASTA",
    "phone": "(530) 225-6805",
    "lat": 40.57513801,
    "lng": -122.414584
  },
  {
    "id": "230000030",
    "name": "RIVER VALLEY HEALTHCARE & WELLNESS CENTRE, LP",
    "npi": "1912338476",
    "hcaiId": "206450841",
    "businessName": "RIVER VALLEY HEALTHCARE & WELLNESS CENTRE, LP",
    "contactEmail": "ADMINISTRATOR@WINDSORREDDINGCC.COM",
    "categoryName": "SKILLED NURSING FACILITY",
    "categoryCode": "SNF",
    "licenseStatus": "ACTIVE",
    "inService": true,
    "licenseNumber": "230000103",
    "licenseEffectiveDate": "11/30/2024",
    "licenseExpirationDate": "11/29/2025",
    "dataDate": "10/18/2025",
    "capacity": 113,
    "address": "2490 COURT ST",
    "city": "REDDING",
    "zip": "96001",
    "county": "SHASTA",
    "phone": "(530) 246-0600",
    "lat": 40.573107,
    "lng": -122.3930655
  },
  {
    "id": "230000681",
    "name": "RIVERSIDE SURGERY CENTER, INC.",
    "npi": "1821047499",
    "hcaiId": "306454032",
    "businessName": "RIVERSIDE SURGERY CENTER, INC.",
    "contactEmail": null,
    "categoryName": "SURGICAL CLINIC",
    "categoryCode": "ASC",
    "licenseStatus": "INACTIVE - CAPEN DECISION",
    "inService": false,
    "licenseNumber": "230000289",
    "licenseEffectiveDate": "06/23/2007",
    "licenseExpirationDate": "06/22/2008",
    "dataDate": "10/18/2025",
    "capacity": 0,
    "address": "2801 PARK MARINA DR",
    "city": "REDDING",
    "zip": "96001",
    "county": "SHASTA",
    "phone": "(530) 244-2273",
    "lat": 40.573467,
    "lng": -122.372604
  },
  {
    "id": "230000367",
    "name": "SHASTA COMMUNITY HEALTH CENTER",
    "npi": "1891710638",
    "hcaiId": "306454008",
    "businessName": "SHASTA COMMUNITY HEALTH CENTER",
    "contactEmail": "BTHORNOCK@SHASTAHEALTH.ORG",
    "categoryName": "PRIMARY CARE CLINIC",
    "categoryCode": "COMTYC",
    "licenseStatus": "ACTIVE",
    "inService": true,
    "licenseNumber": "230000171",
    "licenseEffectiveDate": "07/31/2025",
    "licenseExpirationDate": "06/21/2026",
    "dataDate": "10/18/2025",
    "capacity": 0,
    "address": "1035 PLACER ST",
    "city": "REDDING",
    "zip": "96001",
    "county": "SHASTA",
    "phone": "(530) 246-5710",
    "lat": 40.583025,
    "lng": -122.3852355
  },
  {
    "id": "630014605",
    "name": "SHASTA COMMUNITY HEALTH CENTER - HOPE VAN 2 - HEALTH OUTREACH FOR PEOPLE EVERYWHERE",
    "npi": null,
    "hcaiId": "306454066",
    "businessName": "SHASTA COMMUNITY HEALTH CENTER",
    "contactEmail": "DGERMANO@SHASTAHEALTH.ORG",
    "categoryName": "PRIMARY CARE CLINIC",
    "categoryCode": "COMTYC",
    "licenseStatus": "ACTIVE",
    "inService": true,
    "licenseNumber": "550002417",
    "licenseEffectiveDate": "07/29/2024",
    "licenseExpirationDate": "07/28/2025",
    "dataDate": "10/18/2025",
    "capacity": 0,
    "address": "1035 PLACER ST",
    "city": "REDDING",
    "zip": "96001",
    "county": "SHASTA",
    "phone": "(530) 246-5980",
    "lat": 40.583025,
    "lng": -122.3852355
  },
  {
    "id": "630001041",
    "name": "SHASTA COMMUNITY HEALTH CENTER - MOBILE UNIT 1",
    "npi": null,
    "hcaiId": "306454064",
    "businessName": "SHASTA COMMUNITY HEALTH CENTER",
    "contactEmail": "RHTEMPLE@SHASTAHEALTH.ORG",
    "categoryName": "PRIMARY CARE CLINIC",
    "categoryCode": "COMTYC",
    "licenseStatus": "ACTIVE",
    "inService": true,
    "licenseNumber": "550002417",
    "licenseEffectiveDate": "07/29/2024",
    "licenseExpirationDate": "07/28/2025",
    "dataDate": "10/18/2025",
    "capacity": 0,
    "address": "1035 PLACER ST",
    "city": "REDDING",
    "zip": "96001",
    "county": "SHASTA",
    "phone": "(530) 646-3932",
    "lat": 40.583025,
    "lng": -122.3852355
  },
  {
    "id": "630018512",
    "name": "SHASTA COMMUNITY HEALTH CENTER URGENT CARE",
    "npi": "1356815542",
    "hcaiId": null,
    "businessName": "SHASTA COMMUNITY HEALTH CENTER",
    "contactEmail": null,
    "categoryName": "PRIMARY CARE CLINIC",
    "categoryCode": "COMTYC",
    "licenseStatus": "ACTIVE",
    "inService": true,
    "licenseNumber": "230000171",
    "licenseEffectiveDate": "07/31/2025",
    "licenseExpirationDate": "06/21/2026",
    "dataDate": "10/18/2025",
    "capacity": 0,
    "address": "980 PLACER ST",
    "city": "REDDING",
    "zip": "96001",
    "county": "SHASTA",
    "phone": null,
    "lat": 40.583961,
    "lng": -122.384718
  },
  {
    "id": "230000693",
    "name": "SHASTA COMMUNITY HEALTH DENTAL CLINIC",
    "npi": null,
    "hcaiId": "306454058",
    "businessName": null,
    "contactEmail": "FINANCE@SHASTAHEALTH.ORG",
    "categoryName": "PRIMARY CARE CLINIC",
    "categoryCode": "COMTYC",
    "licenseStatus": null,
    "inService": null,
    "licenseNumber": null,
    "licenseEffectiveDate": null,
    "licenseExpirationDate": null,
    "dataDate": "10/18/2025",
    "capacity": 0,
    "address": "1400 MARKET ST, SUITE 8103",
    "city": "REDDING",
    "zip": "96001",
    "county": "SHASTA",
    "phone": "(530) 246-5980",
    "lat": 40.584915,
    "lng": -122.391495
  },
  {
    "id": "230000016",
    "name": "SHASTA REGIONAL MEDICAL CENTER",
    "npi": "1205089026",
    "hcaiId": "106450940",
    "businessName": "PRIME HEALTHCARE SERVICES - SHASTA, LLC",
    "contactEmail": "MITANI1@PRIMEHEALTHCARE.COM",
    "categoryName": "GENERAL ACUTE CARE HOSPITAL",
    "categoryCode": "GACH",
    "licenseStatus": "ACTIVE",
    "inService": true,
    "licenseNumber": "230000023",
    "licenseEffectiveDate": "01/09/2025",
    "licenseExpirationDate": "10/31/2025",
    "dataDate": "10/18/2025",
    "capacity": 226,
    "address": "1100 BUTTE ST",
    "city": "REDDING",
    "zip": "96001",
    "county": "SHASTA",
    "phone": "(530) 244-5454",
    "lat": 40.585518,
    "lng": -122.3877915
  },
  {
    "id": "630016839",
    "name": "SHASTA REGIONAL MEDICAL CENTER",
    "npi": "1205089026",
    "hcaiId": null,
    "businessName": "PRIME HEALTHCARE SERVICES - SHASTA, LLC",
    "contactEmail": null,
    "categoryName": "OTHER",
    "categoryCode": "PPSPSCH",
    "licenseStatus": "ACTIVE",
    "inService": true,
    "licenseNumber": "230000023",
    "licenseEffectiveDate": "01/09/2025",
    "licenseExpirationDate": "10/31/2025",
    "dataDate": "10/18/2025",
    "capacity": 0,
    "address": "1100 BUTTE ST",
    "city": "REDDING",
    "zip": "96001",
    "county": "SHASTA",
    "phone": null,
    "lat": 40.585518,
    "lng": -122.3877915
  },
  {
    "id": "230000112",
    "name": "SURGERY CENTER OF NORTHERN CALIFORNIA",
    "npi": "1497740872",
    "hcaiId": "306454011",
    "businessName": "SHASTA EYE SURGEONS, INC.",
    "contactEmail": "BEATRIZ.ESCALANTE@SHASTAEYE.COM",
    "categoryName": "SURGICAL CLINIC",
    "categoryCode": "ASC",
    "licenseStatus": "INACTIVE - CAPEN DECISION",
    "inService": false,
    "licenseNumber": "230000180",
    "licenseEffectiveDate": "01/01/2009",
    "licenseExpirationDate": "12/31/2009",
    "dataDate": "10/18/2025",
    "capacity": 0,
    "address": "950 BUTTE ST",
    "city": "REDDING",
    "zip": "96001",
    "county": "SHASTA",
    "phone": "(530) 223-2500",
    "lat": 40.585995,
    "lng": -122.3854965
  },
  {
    "id": "630016817",
    "name": "THE CARDIOVASCULAR SURGICAL CENTER, INC.",
    "npi": "1497120463",
    "hcaiId": null,
    "businessName": null,
    "contactEmail": null,
    "categoryName": "SURGICAL CLINIC",
    "categoryCode": "ASC",
    "licenseStatus": null,
    "inService": null,
    "licenseNumber": null,
    "licenseEffectiveDate": null,
    "licenseExpirationDate": null,
    "dataDate": "10/18/2025",
    "capacity": 0,
    "address": "2415 SONOMA STREET",
    "city": "REDDING",
    "zip": "96001",
    "county": "SHASTA",
    "phone": null,
    "lat": 40.57306713,
    "lng": -122.4024262
  },
  {
    "id": "230000422",
    "name": "VIBRA HOSPITAL OF NORTHERN CALIFORNIA",
    "npi": "1972580363",
    "hcaiId": "106454012",
    "businessName": "NORTHERN CALIFORNIA REHABILITATION HOSPITAL, LLC",
    "contactEmail": "EDEFILLIPO@VHNORCAL.COM",
    "categoryName": "GENERAL ACUTE CARE HOSPITAL",
    "categoryCode": "GACH",
    "licenseStatus": "ACTIVE",
    "inService": true,
    "licenseNumber": "230000191",
    "licenseEffectiveDate": "11/26/2024",
    "licenseExpirationDate": "11/25/2025",
    "dataDate": "10/18/2025",
    "capacity": 50,
    "address": "2801 EUREKA WAY",
    "city": "REDDING",
    "zip": "96001",
    "county": "SHASTA",
    "phone": "(530) 246-9000",
    "lat": 40.58570688,
    "lng": -122.4130195
  },
  {
    "id": "230000504",
    "name": "VIBRA HOSPITAL OF NORTHERN CALIFORNIA D/P SNF",
    "npi": "1770524928",
    "hcaiId": null,
    "businessName": "NORTHERN CALIFORNIA REHABILITATION HOSPITAL, LLC",
    "contactEmail": null,
    "categoryName": "SKILLED NURSING FACILITY",
    "categoryCode": "SNF",
    "licenseStatus": "ACTIVE",
    "inService": true,
    "licenseNumber": "230000191",
    "licenseEffectiveDate": "11/26/2024",
    "licenseExpirationDate": "11/25/2025",
    "dataDate": "10/18/2025",
    "capacity": 32,
    "address": "2801 EUREKA WAY",
    "city": "REDDING",
    "zip": "96001",
    "county": "SHASTA",
    "phone": "(530) 245-4112",
    "lat": 40.58570688,
    "lng": -122.4130195
  },
  {
    "id": "230000520",
    "name": "WELLSCRIPT",
    "npi": null,
    "hcaiId": "406454019",
    "businessName": "WELLSCRIPT INC",
    "contactEmail": "OH9@OWENSHEALTHCARE.COM",
    "categoryName": "HOME HEALTH AGENCY",
    "categoryCode": "HHA",
    "licenseStatus": "ACTIVE",
    "inService": true,
    "licenseNumber": "230000224",
    "licenseEffectiveDate": "04/08/2025",
    "licenseExpirationDate": "04/07/2026",
    "dataDate": "10/18/2025",
    "capacity": 0,
    "address": "2025 COURT ST, SUITE D",
    "city": "REDDING",
    "zip": "96001",
    "county": "SHASTA",
    "phone": "(530) 225-8898",
    "lat": 40.578273,
    "lng": -122.393295
  },
  {
    "id": "630027726",
    "name": "WOMEN’S, BABIES', AND CHILDREN’S CENTER",
    "npi": null,
    "hcaiId": null,
    "businessName": "SHASTA COMMUNITY HEALTH CENTER",
    "contactEmail": null,
    "categoryName": "PRIMARY CARE CLINIC",
    "categoryCode": "COMTYC",
    "licenseStatus": "ACTIVE",
    "inService": true,
    "licenseNumber": "230000171",
    "licenseEffectiveDate": "07/31/2025",
    "licenseExpirationDate": "06/21/2026",
    "dataDate": "10/18/2025",
    "capacity": 0,
    "address": "1000 PLACER ST",
    "city": "REDDING",
    "zip": "96001",
    "county": "SHASTA",
    "phone": null,
    "lat": 40.584037,
    "lng": -122.3880589
  }
]