[
  {
    "id": "630018886",
    "name": "BIG VALLEY ELEMENTARY SCHOOL",
    "npi": null,
    "hcaiId": null,
    "businessName": "MOUNTAIN VALLEYS HEALTH CENTERS, INC",
    "contactEmail": null,
    "categoryName": "PRIMARY CARE CLINIC",
    "categoryCode": "COMTYC",
    "licenseStatus": "ACTIVE",
    "inService": true,
    "licenseNumber": "230000104",
    "licenseEffectiveDate": "02/03/2025",
    "licenseExpirationDate": "11/19/2025",
    "dataDate": "10/18/2025",
    "capacity": 0,
    "address": "90 1ST ST, ROOM PRINCIPAL'S OFFICE",
    "city": "BIEBER",
    "zip": "96009",
    "county": "LASSEN",
    "phone": null,
    "lat": 41.1208891,
    "lng": -121.1437627
  },
  {
    "id": "630018887",
    "name": "BIG VALLEY HIGH SCHOOL",
    "npi": null,
    "hcaiId": null,
    "businessName": "MOUNTAIN VALLEYS HEALTH CENTERS, INC",
    "contactEmail": null,
    "categoryName": "PRIMARY CARE CLINIC",
    "categoryCode": "COMTYC",
    "licenseStatus": "ACTIVE",
    "inService": true,
    "licenseNumber": "230000104",
    "licenseEffectiveDate": "02/03/2025",
    "licenseExpirationDate": "11/19/2025",
    "dataDate": "10/18/2025",
    "capacity": 0,
    "address": "400 BRIDGE ST, ROOM PRINCIPAL'S OFFICE",
    "city": "BIEBER",
    "zip": "96009",
    "county": "LASSEN",
    "phone": null,
    "lat": 41.1216365,
    "lng": -121.1418336
  },
  {
    "id": "230000076",
    "name": "BIG VALLEY MEDICAL CENTER",
    "npi": null,
    "hcaiId": "306182250",
    "businessName": "MOUNTAIN VALLEYS HEALTH CENTERS, INC",
    "contactEmail": "JBRINKMAN@MTNVALLEYHC.ORG",
    "categoryName": "PRIMARY CARE CLINIC",
    "categoryCode": "COMTYC",
    "licenseStatus": "ACTIVE",
    "inService": true,
    "licenseNumber": "230000104",
    "licenseEffectiveDate": "02/03/2025",
    "licenseExpirationDate": "11/19/2025",
    "dataDate": "10/18/2025",
    "capacity": 0,
    "address": "554-850 MEDICAL CENTER DR",
    "city": "BIEBER",
    "zip": "96009",
    "county": "LASSEN",
    "phone": "(530) 999-5024",
    "lat": 41.131612,
    "lng": -121.130227
  }
]