[
  {
    "id": "230000668",
    "name": "ANDERSON FAMILY HEALTH CENTER",
    "npi": null,
    "hcaiId": "306450413",
    "businessName": "SHASTA COMMUNITY HEALTH CENTER",
    "contactEmail": "RHTEMPLE@SHASTAHEALTH.ORG",
    "categoryName": "PRIMARY CARE CLINIC",
    "categoryCode": "COMTYC",
    "licenseStatus": "ACTIVE",
    "inService": true,
    "licenseNumber": "230000287",
    "licenseEffectiveDate": "01/12/2025",
    "licenseExpirationDate": "01/11/2026",
    "dataDate": "10/18/2025",
    "capacity": 0,
    "address": "2965 EAST ST",
    "city": "ANDERSON",
    "zip": "96007",
    "county": "SHASTA",
    "phone": "(530) 646-3932",
    "lat": 40.451958,
    "lng": -122.2983045
  },
  {
    "id": "230000586",
    "name": "ANDERSON WALK-IN MEDICAL CLINIC",
    "npi": "1275685414",
    "hcaiId": null,
    "businessName": null,
    "contactEmail": "EA1WALLERS@SBCGLOBAL.NET",
    "categoryName": "PRIMARY CARE CLINIC",
    "categoryCode": "RHC/MD",
    "licenseStatus": null,
    "inService": null,
    "licenseNumber": null,
    "licenseEffectiveDate": null,
    "licenseExpirationDate": null,
    "dataDate": "10/18/2025",
    "capacity": 0,
    "address": "3082 MCMURRAY DRIVE",
    "city": "ANDERSON",
    "zip": "96007",
    "county": "SHASTA",
    "phone": "(530) 365-4412",
    "lat": 40.454865,
    "lng": -122.2931385
  },
  {
    "id": "230000023",
    "name": "OAK RIVER REHAB",
    "npi": "1316005226",
    "hcaiId": "206452301",
    "businessName": "MAGNOLIA HOLDINGS, LLC",
    "contactEmail": "GREG.HOLLINGSWORTH@OAKRIVER-REHAB.COM",
    "categoryName": "SKILLED NURSING FACILITY",
    "categoryCode": "SNF",
    "licenseStatus": "ACTIVE",
    "inService": true,
    "licenseNumber": "230000071",
    "licenseEffectiveDate": "01/18/2025",
    "licenseExpirationDate": "01/17/2026",
    "dataDate": "10/18/2025",
    "capacity": 143,
    "address": "3300 FRANKLIN ST",
    "city": "ANDERSON",
    "zip": "96007",
    "county": "SHASTA",
    "phone": "(530) 365-0025",
    "lat": 40.44762,
    "lng": -122.3114265
  },
  {
    "id": "630019335",
    "name": "SHASTA FAMILY HEALTH CARE SERVICES",
    "npi": null,
    "hcaiId": "406452954",
    "businessName": "SHASTA FAMILY HEALTH CARE SERVICES",
    "contactEmail": "SHASTAFAMILYHCS@GMAIL.COM",
    "categoryName": "HOME HEALTH AGENCY",
    "categoryCode": "HHA",
    "licenseStatus": "ACTIVE",
    "inService": true,
    "licenseNumber": "550005823",
    "licenseEffectiveDate": "10/19/2025",
    "licenseExpirationDate": "10/18/2026",
    "dataDate": "10/18/2025",
    "capacity": 0,
    "address": "2350 BALLS FERRY RD, SUITE A",
    "city": "ANDERSON",
    "zip": "96007",
    "county": "SHASTA",
    "phone": "(530) 378-5283",
    "lat": 40.451157,
    "lng": -122.292495
  }
]