[
  {
    "id": "230000481",
    "name": "ACCENTCARE HOME HEALTH OF CALIFORNIA, INC.",
    "npi": "1992751382",
    "hcaiId": "406454054",
    "businessName": "ACCENTCARE HOME HEALTH OF CALIFORNIA, INC.",
    "contactEmail": "DENISEHARRINGTON@ACCENTCARE.COM",
    "categoryName": "HOME HEALTH AGENCY",
    "categoryCode": "HHA",
    "licenseStatus": "ACTIVE",
    "inService": true,
    "licenseNumber": "230000205",
    "licenseEffectiveDate": "12/01/2024",
    "licenseExpirationDate": "11/30/2025",
    "dataDate": "10/18/2025",
    "capacity": 0,
    "address": "2590 GOODWATER AVE, SUITE 100",
    "city": "REDDING",
    "zip": "96002",
    "county": "SHASTA",
    "phone": "(972) 201-3779",
    "lat": 40.571208,
    "lng": -122.322564
  },
  {
    "id": "630015371",
    "name": "BRISTOL HOSPICE - REDDING",
    "npi": "1972918753",
    "hcaiId": "406454070",
    "businessName": "SOJOURN HOSPICE & PALLIATIVE CARE - REDDING, LLC",
    "contactEmail": "REGULATORY@BRISTOLHOSPICE.COM",
    "categoryName": "HOSPICE",
    "categoryCode": "HOSPICE",
    "licenseStatus": "ACTIVE",
    "inService": true,
    "licenseNumber": "550002893",
    "licenseEffectiveDate": "10/10/2024",
    "licenseExpirationDate": "10/09/2026",
    "dataDate": "10/18/2025",
    "capacity": 0,
    "address": "415 KNOLLCREST DR, SUITE 140 B & C",
    "city": "REDDING",
    "zip": "96002",
    "county": "SHASTA",
    "phone": "(855) 472-3892",
    "lat": 40.572511,
    "lng": -122.364532
  },
  {
    "id": "630022049",
    "name": "CHYBA SCHOOL",
    "npi": null,
    "hcaiId": null,
    "businessName": "HILL COUNTRY COMMUNITY CLINIC",
    "contactEmail": null,
    "categoryName": "PRIMARY CARE CLINIC",
    "categoryCode": "COMTYC",
    "licenseStatus": "ACTIVE",
    "inService": true,
    "licenseNumber": "230000078",
    "licenseEffectiveDate": "02/28/2025",
    "licenseExpirationDate": "02/27/2026",
    "dataDate": "10/18/2025",
    "capacity": 0,
    "address": "8544 AIRPORT RD",
    "city": "REDDING",
    "zip": "96002",
    "county": "SHASTA",
    "phone": null,
    "lat": 40.53616359,
    "lng": -122.3028619
  },
  {
    "id": "230000351",
    "name": "COPPER RIDGE CARE CENTER",
    "npi": "1952465791",
    "hcaiId": "206454002",
    "businessName": "APPLEWOOD OPERATING COMPANY, LLC",
    "contactEmail": "DARRELL.THOMPSON@COPPERRIDGECC.COM",
    "categoryName": "SKILLED NURSING FACILITY",
    "categoryCode": "SNF",
    "licenseStatus": "ACTIVE",
    "inService": true,
    "licenseNumber": "230000165",
    "licenseEffectiveDate": "01/03/2025",
    "licenseExpirationDate": "01/02/2026",
    "dataDate": "10/18/2025",
    "capacity": 125,
    "address": "201 HARTNELL AVE",
    "city": "REDDING",
    "zip": "96002",
    "county": "SHASTA",
    "phone": "(530) 222-2273",
    "lat": 40.567545,
    "lng": -122.368221
  },
  {
    "id": "230000247",
    "name": "CRESTWOOD WELLNESS AND RECOVERY CENTER",
    "npi": "1194743088",
    "hcaiId": "206454001",
    "businessName": "CRESTWOOD BEHAVIORAL HEALTH, INC.",
    "contactEmail": "MYARWOOD@CBHI.NET",
    "categoryName": "SKILLED NURSING FACILITY",
    "categoryCode": "SNF",
    "licenseStatus": "ACTIVE",
    "inService": true,
    "licenseNumber": "230000122",
    "licenseEffectiveDate": "12/31/2024",
    "licenseExpirationDate": "12/30/2025",
    "dataDate": "10/18/2025",
    "capacity": 99,
    "address": "3062 CHURN CREEK RD",
    "city": "REDDING",
    "zip": "96002",
    "county": "SHASTA",
    "phone": "(530) 221-0976",
    "lat": 40.562577,
    "lng": -122.3537535
  },
  {
    "id": "630028088",
    "name": "ENTERPRISE FAMILY HEALTH AND DENTAL CENTER",
    "npi": null,
    "hcaiId": null,
    "businessName": "SHASTA COMMUNITY HEALTH CENTER",
    "contactEmail": "COMPLIANCE@SHASTAHEALTH.ORG",
    "categoryName": "PRIMARY CARE CLINIC",
    "categoryCode": "COMTYC",
    "licenseStatus": "ACTIVE",
    "inService": true,
    "licenseNumber": "550009978",
    "licenseEffectiveDate": "06/20/2025",
    "licenseExpirationDate": "12/19/2025",
    "dataDate": "10/18/2025",
    "capacity": 0,
    "address": "1201 INDUSTRIAL ST",
    "city": "REDDING",
    "zip": "96002",
    "county": "SHASTA",
    "phone": "(530) 646-3932",
    "lat": 40.57415234,
    "lng": -122.349631
  },
  {
    "id": "230000081",
    "name": "FEMINIST WOMEN'S HEALTH CENTER",
    "npi": null,
    "hcaiId": "306452318",
    "businessName": "CHICO FEMINIST WOMEN'S HEALTH CENTER",
    "contactEmail": "CXIONG@CAWHS.ORG",
    "categoryName": "PRIMARY CARE CLINIC",
    "categoryCode": "COMTYC",
    "licenseStatus": "ACTIVE",
    "inService": true,
    "licenseNumber": "230000076",
    "licenseEffectiveDate": "02/18/2025",
    "licenseExpirationDate": "02/17/2026",
    "dataDate": "10/18/2025",
    "capacity": 0,
    "address": "1901 VICTOR AVE",
    "city": "REDDING",
    "zip": "96002",
    "county": "SHASTA",
    "phone": "(530) 221-0193",
    "lat": 40.57857,
    "lng": -122.338314
  },
  {
    "id": "630028067",
    "name": "HILL COUNTRY COMMUNITY CLINIC",
    "npi": null,
    "hcaiId": null,
    "businessName": "HILL COUNTRY COMMUNITY CLINIC",
    "contactEmail": null,
    "categoryName": "PRIMARY CARE CLINIC",
    "categoryCode": "COMTYC",
    "licenseStatus": "ACTIVE",
    "inService": true,
    "licenseNumber": "230000078",
    "licenseEffectiveDate": "02/28/2025",
    "licenseExpirationDate": "02/27/2026",
    "dataDate": "10/18/2025",
    "capacity": 0,
    "address": "1024 MISTLETOE LN, SUITE B",
    "city": "REDDING",
    "zip": "96002",
    "county": "SHASTA",
    "phone": null,
    "lat": 40.57870418,
    "lng": -122.3527158
  },
  {
    "id": "630028176",
    "name": "HILL COUNTRY COMMUNITY CLINIC",
    "npi": null,
    "hcaiId": null,
    "businessName": "HILL COUNTRY COMMUNITY CLINIC",
    "contactEmail": null,
    "categoryName": "PRIMARY CARE CLINIC",
    "categoryCode": "COMTYC",
    "licenseStatus": "ACTIVE",
    "inService": true,
    "licenseNumber": "230000078",
    "licenseEffectiveDate": "02/28/2025",
    "licenseExpirationDate": "02/27/2026",
    "dataDate": "10/18/2025",
    "capacity": 0,
    "address": "3270 CHURN CREEK RD",
    "city": "REDDING",
    "zip": "96002",
    "county": "SHASTA",
    "phone": null,
    "lat": 40.5600144,
    "lng": -122.3561193
  },
  {
    "id": "230000708",
    "name": "HOME HEALTH CARE MANAGEMENT, INC. - BRANCH",
    "npi": "1447253943",
    "hcaiId": "406454036",
    "businessName": "HOME HEALTH CARE MANAGEMENT, INC.",
    "contactEmail": null,
    "categoryName": "HOME HEALTH AGENCY",
    "categoryCode": "HHA",
    "licenseStatus": "ACTIVE",
    "inService": true,
    "licenseNumber": "230000185",
    "licenseEffectiveDate": "11/08/2024",
    "licenseExpirationDate": "11/07/2025",
    "dataDate": "10/18/2025",
    "capacity": 0,
    "address": "1647 HARTNELL AVE, SUITE 11",
    "city": "REDDING",
    "zip": "96002",
    "county": "SHASTA",
    "phone": "(530) 226-0121",
    "lat": 40.56318,
    "lng": -122.341158
  },
  {
    "id": "230000049",
    "name": "HOME HEALTH SERVICES",
    "npi": "1386859478",
    "hcaiId": null,
    "businessName": "C.F.B. INC.",
    "contactEmail": "CFB-OFFICE@ATT.NET",
    "categoryName": "INTERMEDIATE CARE FACILITY-DD/H/N/CN/IID",
    "categoryCode": "ICFDDN",
    "licenseStatus": "ACTIVE",
    "inService": true,
    "licenseNumber": "230000089",
    "licenseEffectiveDate": "11/08/2024",
    "licenseExpirationDate": "11/07/2025",
    "dataDate": "10/18/2025",
    "capacity": 6,
    "address": "1831 CANBY RD",
    "city": "REDDING",
    "zip": "96002",
    "county": "SHASTA",
    "phone": "(530) 524-1408",
    "lat": 40.580892,
    "lng": -122.3522325
  },
  {
    "id": "230000038",
    "name": "MARQUIS CARE AT SHASTA",
    "npi": "1598750358",
    "hcaiId": "206451017",
    "businessName": "MARQUIS COMPANIES I, INC.",
    "contactEmail": "RMHERVAGAULT@MARQUISCOMPANIES.COM",
    "categoryName": "SKILLED NURSING FACILITY",
    "categoryCode": "SNF",
    "licenseStatus": "ACTIVE",
    "inService": true,
    "licenseNumber": "230000033",
    "licenseEffectiveDate": "12/01/2024",
    "licenseExpirationDate": "11/30/2025",
    "dataDate": "10/18/2025",
    "capacity": 180,
    "address": "3550 CHURN CREEK RD",
    "city": "REDDING",
    "zip": "96002",
    "county": "SHASTA",
    "phone": "(605) 881-5003",
    "lat": 40.555314,
    "lng": -122.3536275
  },
  {
    "id": "230000397",
    "name": "MEDICAL HOME CARE PROFESSIONALS",
    "npi": "1982607065",
    "hcaiId": "406454010",
    "businessName": "MEDICAL HOME SPECIALISTS INCORPORATED",
    "contactEmail": "ELAINE@MEDICALHOMECAREPROS.COM",
    "categoryName": "HOME HEALTH AGENCY",
    "categoryCode": "HHA",
    "licenseStatus": "ACTIVE",
    "inService": true,
    "licenseNumber": "230000178",
    "licenseEffectiveDate": "11/26/2024",
    "licenseExpirationDate": "11/25/2025",
    "dataDate": "10/18/2025",
    "capacity": 0,
    "address": "2115 CHURN CREEK RD",
    "city": "REDDING",
    "zip": "96002",
    "county": "SHASTA",
    "phone": "(530) 226-5577",
    "lat": 40.57686,
    "lng": -122.3526285
  },
  {
    "id": "230000760",
    "name": "MERAKEY - CIRRUS",
    "npi": "1104529197",
    "hcaiId": null,
    "businessName": "MERAKEY ALLOS",
    "contactEmail": "KATHLEEN.STARR@MERAKEY.ORG",
    "categoryName": "INTERMEDIATE CARE FACILITY-DD/H/N/CN/IID",
    "categoryCode": "ICFDDH",
    "licenseStatus": "ACTIVE",
    "inService": true,
    "licenseNumber": "230000332",
    "licenseEffectiveDate": "08/28/2025",
    "licenseExpirationDate": "08/27/2026",
    "dataDate": "10/18/2025",
    "capacity": 6,
    "address": "1974 CIRRUS ST",
    "city": "REDDING",
    "zip": "96002",
    "county": "SHASTA",
    "phone": "(530) 222-5633",
    "lat": 40.5522,
    "lng": -122.334399
  },
  {
    "id": "230000497",
    "name": "MERAKEY - HARPOLE",
    "npi": "1700589413",
    "hcaiId": null,
    "businessName": "MERAKEY ALLOS",
    "contactEmail": "AMBER.BUXTON@MERAKEY.ORG",
    "categoryName": "INTERMEDIATE CARE FACILITY-DD/H/N/CN/IID",
    "categoryCode": "ICFDDH",
    "licenseStatus": "ACTIVE",
    "inService": true,
    "licenseNumber": "230000218",
    "licenseEffectiveDate": "05/24/2025",
    "licenseExpirationDate": "05/23/2026",
    "dataDate": "10/18/2025",
    "capacity": 6,
    "address": "1485 HARPOLE RD",
    "city": "REDDING",
    "zip": "96002",
    "county": "SHASTA",
    "phone": "(530) 222-5633",
    "lat": 40.552515,
    "lng": -122.3447895
  },
  {
    "id": "630014504",
    "name": "MISSION HOME HEALTH OF REDDING",
    "npi": "1063853398",
    "hcaiId": "406454065",
    "businessName": "HEALTHY LIVING AT HOME - REDDING, LLC",
    "contactEmail": "AKIKUTA@MISSIONHH.COM",
    "categoryName": "HOME HEALTH AGENCY",
    "categoryCode": "HHA",
    "licenseStatus": "ACTIVE",
    "inService": true,
    "licenseNumber": "550002513",
    "licenseEffectiveDate": "07/03/2025",
    "licenseExpirationDate": "07/02/2026",
    "dataDate": "10/18/2025",
    "capacity": 0,
    "address": "2150 CHURN CREEK RD, SUITE 100",
    "city": "REDDING",
    "zip": "96002",
    "county": "SHASTA",
    "phone": "(530) 605-3731",
    "lat": 40.57686,
    "lng": -122.3537265
  },
  {
    "id": "630011210",
    "name": "PLANNED PARENTHOOD SHASTA-DIABLO",
    "npi": "1407044175",
    "hcaiId": "306454056",
    "businessName": "PLANNED PARENTHOOD: SHASTA-DIABLO, INC.",
    "contactEmail": "GMARTINEZ@PPNORCAL.ORG",
    "categoryName": "PRIMARY CARE CLINIC",
    "categoryCode": "COMTYC",
    "licenseStatus": "ACTIVE",
    "inService": true,
    "licenseNumber": "550000562",
    "licenseEffectiveDate": "06/27/2025",
    "licenseExpirationDate": "06/26/2026",
    "dataDate": "10/18/2025",
    "capacity": 0,
    "address": "2935 BECHELLI LN, SUITE C",
    "city": "REDDING",
    "zip": "96002",
    "county": "SHASTA",
    "phone": "(707) 689-4430",
    "lat": 40.564548,
    "lng": -122.362308
  },
  {
    "id": "630020364",
    "name": "RIDGELINE PEDIATRIC - REDDING BRITTANY",
    "npi": null,
    "hcaiId": null,
    "businessName": "CROSSPEAKS SERVICES, INC.",
    "contactEmail": "MLYMAN@RIDGELINEPEDIATRIC.COM",
    "categoryName": "PEDIATRIC DAY HEALTH & RESPITE CARE FACILITY",
    "categoryCode": "PDHRCF",
    "licenseStatus": "ACTIVE",
    "inService": true,
    "licenseNumber": "550005734",
    "licenseEffectiveDate": "09/17/2025",
    "licenseExpirationDate": "09/16/2026",
    "dataDate": "10/18/2025",
    "capacity": 6,
    "address": "4165 BRITTANY DR",
    "city": "REDDING",
    "zip": "96002",
    "county": "SHASTA",
    "phone": "(530) 802-0749",
    "lat": 40.546386,
    "lng": -122.3219475
  },
  {
    "id": "630023463",
    "name": "RIDGELINE PEDIATRIC - REDDING CHINOOK",
    "npi": null,
    "hcaiId": null,
    "businessName": "CROSSPEAKS SERVICES, INC.",
    "contactEmail": "MLYMAN@RIDGELINEPEDIATRIC.COM",
    "categoryName": "PEDIATRIC DAY HEALTH & RESPITE CARE FACILITY",
    "categoryCode": "PDHRCF",
    "licenseStatus": "ACTIVE",
    "inService": true,
    "licenseNumber": "550006935",
    "licenseEffectiveDate": "10/12/2025",
    "licenseExpirationDate": "10/11/2026",
    "dataDate": "10/18/2025",
    "capacity": 6,
    "address": "4322 CHINOOK DR",
    "city": "REDDING",
    "zip": "96002",
    "county": "SHASTA",
    "phone": "(530) 802-0749",
    "lat": 40.544892,
    "lng": -122.3552385
  },
  {
    "id": "630027934",
    "name": "RIDGELINE PEDIATRIC - REDDING PACIFIC",
    "npi": null,
    "hcaiId": null,
    "businessName": "CROSSPEAKS SERVICES, INC.",
    "contactEmail": "MLYMAN@RIDGELINEPEDIATRIC.COM",
    "categoryName": "PEDIATRIC DAY HEALTH & RESPITE CARE FACILITY",
    "categoryCode": "PDHRCF",
    "licenseStatus": "ACTIVE",
    "inService": true,
    "licenseNumber": "550009482",
    "licenseEffectiveDate": "11/07/2025",
    "licenseExpirationDate": "11/06/2026",
    "dataDate": "10/18/2025",
    "capacity": 6,
    "address": "2760 PACIFIC AVE",
    "city": "REDDING",
    "zip": "96002",
    "county": "SHASTA",
    "phone": "(435) 881-6338",
    "lat": 40.54089002,
    "lng": -122.321378
  },
  {
    "id": "630014895",
    "name": "VETERANS HOME OF CALIFORNIA - REDDING",
    "npi": null,
    "hcaiId": "206454071",
    "businessName": "CALIFORNIA DEPARTMENT OF VETERANS AFFAIRS",
    "contactEmail": "JESSICA.KOPPES@CALVET.CA.GOV",
    "categoryName": "SKILLED NURSING FACILITY",
    "categoryCode": "SNF",
    "licenseStatus": "ACTIVE",
    "inService": true,
    "licenseNumber": "550002715",
    "licenseEffectiveDate": "12/18/2024",
    "licenseExpirationDate": "12/17/2025",
    "dataDate": "10/18/2025",
    "capacity": 60,
    "address": "3400 KNIGHTON RD",
    "city": "REDDING",
    "zip": "96002",
    "county": "SHASTA",
    "phone": "(530) 224-3803",
    "lat": 40.508136,
    "lng": -122.3106075
  }
]