[
  {
    "id": "630028185",
    "name": "BURNEY ALTERNATIVE HEALTH CENTER",
    "npi": null,
    "hcaiId": null,
    "businessName": "MOUNTAIN VALLEYS HEALTH CENTERS, INC",
    "contactEmail": null,
    "categoryName": "PRIMARY CARE CLINIC",
    "categoryCode": "FQHC/COMTYC",
    "licenseStatus": "ACTIVE",
    "inService": true,
    "licenseNumber": "230000344",
    "licenseEffectiveDate": "11/02/2025",
    "licenseExpirationDate": "11/01/2026",
    "dataDate": "10/18/2025",
    "capacity": 0,
    "address": "37092 STATE HIGHWAY 299 E",
    "city": "BURNEY",
    "zip": "96013",
    "county": "SHASTA",
    "phone": null,
    "lat": 40.8823141,
    "lng": -121.6663743
  },
  {
    "id": "630016846",
    "name": "BURNEY DENTAL CENTER",
    "npi": null,
    "hcaiId": null,
    "businessName": "MOUNTAIN VALLEYS HEALTH CENTERS, INC",
    "contactEmail": null,
    "categoryName": "PRIMARY CARE CLINIC",
    "categoryCode": "COMTYC",
    "licenseStatus": "ACTIVE",
    "inService": true,
    "licenseNumber": "230000104",
    "licenseEffectiveDate": "02/03/2025",
    "licenseExpirationDate": "11/19/2025",
    "dataDate": "10/18/2025",
    "capacity": 0,
    "address": "20615 COMMERCE WAY",
    "city": "BURNEY",
    "zip": "96013",
    "county": "SHASTA",
    "phone": null,
    "lat": 40.888323,
    "lng": -121.6521
  },
  {
    "id": "230000784",
    "name": "BURNEY HEALTH CENTER",
    "npi": "1245301308",
    "hcaiId": "306454063",
    "businessName": "MOUNTAIN VALLEYS HEALTH CENTERS, INC",
    "contactEmail": "SGERIG@MOUNTAINVALLEYS.ORG",
    "categoryName": "PRIMARY CARE CLINIC",
    "categoryCode": "COMTYC",
    "licenseStatus": "ACTIVE",
    "inService": true,
    "licenseNumber": "230000344",
    "licenseEffectiveDate": "11/02/2025",
    "licenseExpirationDate": "11/01/2026",
    "dataDate": "10/18/2025",
    "capacity": 0,
    "address": "37491 ENTERPRISE DR",
    "city": "BURNEY",
    "zip": "96013",
    "county": "SHASTA",
    "phone": "(530) 999-0191",
    "lat": 40.887612,
    "lng": -121.6527075
  },
  {
    "id": "630022482",
    "name": "MAYERS RURAL HEALTH CENTER AND MOBILE UNIT",
    "npi": "1497298483",
    "hcaiId": null,
    "businessName": "MAYERS MEMORIAL HOSPITAL DISTRICT",
    "contactEmail": null,
    "categoryName": "PRIMARY CARE CLINIC",
    "categoryCode": "RHC/OP",
    "licenseStatus": "ACTIVE",
    "inService": true,
    "licenseNumber": "230000021",
    "licenseEffectiveDate": "07/30/2025",
    "licenseExpirationDate": "05/31/2026",
    "dataDate": "10/18/2025",
    "capacity": 0,
    "address": "20641 COMMERCE WAY",
    "city": "BURNEY",
    "zip": "96013",
    "county": "SHASTA",
    "phone": null,
    "lat": 40.88926629,
    "lng": -121.6525028
  },
  {
    "id": "230000245",
    "name": "PIT RIVER HEALTH SERVICE, INC.",
    "npi": null,
    "hcaiId": "306454009",
    "businessName": null,
    "contactEmail": null,
    "categoryName": "PRIMARY CARE CLINIC",
    "categoryCode": "RHC/COMTYC",
    "licenseStatus": null,
    "inService": null,
    "licenseNumber": null,
    "licenseEffectiveDate": null,
    "licenseExpirationDate": null,
    "dataDate": "10/18/2025",
    "capacity": 0,
    "address": "36977 PARK AVE",
    "city": "BURNEY",
    "zip": "96013",
    "county": "SHASTA",
    "phone": "(530) 335-3651",
    "lat": 40.875408,
    "lng": -121.6745235
  }
]