[
  {
    "id": "230000785",
    "name": "FALL RIVER VALLEY HEALTH CENTER",
    "npi": null,
    "hcaiId": "306454051",
    "businessName": "MOUNTAIN VALLEYS HEALTH CENTERS, INC",
    "contactEmail": "SKNOCH@MOUNTAINVALLEYS.ORG",
    "categoryName": "PRIMARY CARE CLINIC",
    "categoryCode": "COMTYC",
    "licenseStatus": "ACTIVE",
    "inService": true,
    "licenseNumber": "230000345",
    "licenseEffectiveDate": "11/02/2025",
    "licenseExpirationDate": "11/01/2026",
    "dataDate": "10/18/2025",
    "capacity": 0,
    "address": "43658 STATE HIGHWAY 299 E",
    "city": "FALL RIVER MILLS",
    "zip": "96028",
    "county": "SHASTA",
    "phone": "(530) 999-0193",
    "lat": 41.02951215,
    "lng": -121.419921
  },
  {
    "id": "100001765",
    "name": "INTERMOUNTAIN HOSPICE",
    "npi": null,
    "hcaiId": "406454069",
    "businessName": "MAYERS MEMORIAL HOSPITAL DISTRICT",
    "contactEmail": "LNEAL@MAYERSMEMORIAL.COM",
    "categoryName": "HOSPICE",
    "categoryCode": "HOSPICE",
    "licenseStatus": "ACTIVE",
    "inService": true,
    "licenseNumber": "550002879",
    "licenseEffectiveDate": "11/07/2024",
    "licenseExpirationDate": "11/06/2026",
    "dataDate": "10/18/2025",
    "capacity": 0,
    "address": "43563 HIGHWAY 299 EAST",
    "city": "FALL RIVER MILLS",
    "zip": "96028",
    "county": "SHASTA",
    "phone": "(530) 336-7503",
    "lat": 41.02335,
    "lng": -121.424553
  },
  {
    "id": "230000009",
    "name": "MAYERS MEMORIAL HOSPITAL",
    "npi": "1912125667",
    "hcaiId": "106450936",
    "businessName": "MAYERS MEMORIAL HOSPITAL DISTRICT",
    "contactEmail": "INFO@MAYERSMEMORIAL.COM",
    "categoryName": "GENERAL ACUTE CARE HOSPITAL",
    "categoryCode": "GACH",
    "licenseStatus": "ACTIVE",
    "inService": true,
    "licenseNumber": "230000021",
    "licenseEffectiveDate": "07/30/2025",
    "licenseExpirationDate": "05/31/2026",
    "dataDate": "10/18/2025",
    "capacity": 16,
    "address": "43563 STATE HIGHWAY 299 E",
    "city": "FALL RIVER MILLS",
    "zip": "96028",
    "county": "SHASTA",
    "phone": "(530) 336-5511",
    "lat": 41.02335,
    "lng": -121.424553
  },
  {
    "id": "230000187",
    "name": "MAYERS MEMORIAL HOSPITAL D/P SNF",
    "npi": "1386763456",
    "hcaiId": null,
    "businessName": "MAYERS MEMORIAL HOSPITAL DISTRICT",
    "contactEmail": "LWARD@MAYERSMEMORIAL.COM",
    "categoryName": "SKILLED NURSING FACILITY",
    "categoryCode": "SNF",
    "licenseStatus": "ACTIVE",
    "inService": true,
    "licenseNumber": "230000021",
    "licenseEffectiveDate": "07/30/2025",
    "licenseExpirationDate": "05/31/2026",
    "dataDate": "10/18/2025",
    "capacity": 99,
    "address": "43563 STATE HIGHWAY 299 E",
    "city": "FALL RIVER MILLS",
    "zip": "96028",
    "county": "SHASTA",
    "phone": "(530) 336-5511",
    "lat": 41.02335,
    "lng": -121.424553
  }
]