[
  {
    "id": "230000017",
    "name": "SENECA DISTRICT HOSPITAL",
    "npi": "1396848677",
    "hcaiId": "106321016",
    "businessName": "SENECA HEALTHCARE DISTRICT",
    "contactEmail": "DHOUSEN@SENECAHOSPITAL.ORG",
    "categoryName": "GENERAL ACUTE CARE HOSPITAL",
    "categoryCode": "GACH",
    "licenseStatus": "ACTIVE",
    "inService": true,
    "licenseNumber": "230000032",
    "licenseEffectiveDate": "06/30/2025",
    "licenseExpirationDate": "06/29/2026",
    "dataDate": "10/18/2025",
    "capacity": 10,
    "address": "130 BRENTWOOD DR",
    "city": "CHESTER",
    "zip": "96020",
    "county": "PLUMAS",
    "phone": "(530) 258-2067",
    "lat": 40.3054898,
    "lng": -121.2339818
  },
  {
    "id": "230000227",
    "name": "SENECA DISTRICT HOSPITAL D/P SNF",
    "npi": "1326234022",
    "hcaiId": null,
    "businessName": "SENECA HEALTHCARE DISTRICT",
    "contactEmail": "JMAHLOCH@SENECAHOSPITAL.ORG",
    "categoryName": "SKILLED NURSING FACILITY",
    "categoryCode": "SNF",
    "licenseStatus": "ACTIVE",
    "inService": true,
    "licenseNumber": "230000032",
    "licenseEffectiveDate": "06/30/2025",
    "licenseExpirationDate": "06/29/2026",
    "dataDate": "10/18/2025",
    "capacity": 16,
    "address": "130 BRENTWOOD DR",
    "city": "CHESTER",
    "zip": "96020",
    "county": "PLUMAS",
    "phone": "(530) 258-2169",
    "lat": 40.3054898,
    "lng": -121.2339818
  },
  {
    "id": "230000808",
    "name": "SENECA HEALTHCARE DISTRICT LAKE ALMANOR CLINIC",
    "npi": "1104920438",
    "hcaiId": null,
    "businessName": "SENECA HEALTHCARE DISTRICT",
    "contactEmail": "INFO@SENECAHOSPITAL.ORG",
    "categoryName": "PRIMARY CARE CLINIC",
    "categoryCode": "RHC/OP",
    "licenseStatus": "ACTIVE",
    "inService": true,
    "licenseNumber": "230000032",
    "licenseEffectiveDate": "06/30/2025",
    "licenseExpirationDate": "06/29/2026",
    "dataDate": "10/18/2025",
    "capacity": 0,
    "address": "199 REYNOLDS ROAD",
    "city": "CHESTER",
    "zip": "96020",
    "county": "PLUMAS",
    "phone": "(530) 258-2866",
    "lat": 40.30659,
    "lng": -121.235301
  }
]