[
  {
    "id": "630015604",
    "name": "ADVENTIST HEALTH CLEARLAKE",
    "npi": "1285054106",
    "hcaiId": null,
    "businessName": "ADVENTIST HEALTH CLEARLAKE HOSPITAL, INC.",
    "contactEmail": null,
    "categoryName": "PRIMARY CARE CLINIC",
    "categoryCode": "RHC/OP",
    "licenseStatus": "ACTIVE",
    "inService": true,
    "licenseNumber": "110000174",
    "licenseEffectiveDate": "11/01/2025",
    "licenseExpirationDate": "10/31/2026",
    "dataDate": "10/18/2025",
    "capacity": 0,
    "address": "155 SOLANO ST",
    "city": "CORNING",
    "zip": "96021",
    "county": "TEHAMA",
    "phone": "(530) 824-4663",
    "lat": 39.92778022,
    "lng": -122.1687505
  },
  {
    "id": "630016624",
    "name": "DIGNITY HEALTH SOLANO STREET MEDICAL CLINIC",
    "npi": "1609246461",
    "hcaiId": null,
    "businessName": "DIGNITY HEALTH",
    "contactEmail": null,
    "categoryName": "PRIMARY CARE CLINIC",
    "categoryCode": "RHC/OP",
    "licenseStatus": "ACTIVE",
    "inService": true,
    "licenseNumber": "230000036",
    "licenseEffectiveDate": "09/18/2025",
    "licenseExpirationDate": "11/27/2025",
    "dataDate": "10/18/2025",
    "capacity": 0,
    "address": "2126 SOLANO STREET",
    "city": "CORNING",
    "zip": "96021",
    "county": "TEHAMA",
    "phone": "(530) 824-4002",
    "lat": 39.928383,
    "lng": -122.1958395
  },
  {
    "id": "230000667",
    "name": "JAMES OOI, M.D., APC",
    "npi": "1871778886",
    "hcaiId": null,
    "businessName": null,
    "contactEmail": "HONEYBADGER.LANCE@GMAIL.COM",
    "categoryName": "PRIMARY CARE CLINIC",
    "categoryCode": "RHC/MD",
    "licenseStatus": null,
    "inService": null,
    "licenseNumber": null,
    "licenseEffectiveDate": null,
    "licenseExpirationDate": null,
    "dataDate": "10/18/2025",
    "capacity": 0,
    "address": "320 SOLANO ST",
    "city": "CORNING",
    "zip": "96021",
    "county": "TEHAMA",
    "phone": "(231) 924-0244",
    "lat": 39.928167,
    "lng": -122.169879
  },
  {
    "id": "630018998",
    "name": "ROLLING HILLS CLINIC",
    "npi": null,
    "hcaiId": null,
    "businessName": null,
    "contactEmail": null,
    "categoryName": "PRIMARY CARE CLINIC",
    "categoryCode": "FQHC",
    "licenseStatus": null,
    "inService": null,
    "licenseNumber": null,
    "licenseEffectiveDate": null,
    "licenseExpirationDate": null,
    "dataDate": "10/18/2025",
    "capacity": 0,
    "address": "706 PEACH ST",
    "city": "CORNING",
    "zip": "96021",
    "county": "TEHAMA",
    "phone": "(530) 690-2827",
    "lat": 39.928707,
    "lng": -122.1747615
  },
  {
    "id": "630027291",
    "name": "ROLLING HILLS CLINIC",
    "npi": null,
    "hcaiId": null,
    "businessName": null,
    "contactEmail": null,
    "categoryName": "PRIMARY CARE CLINIC",
    "categoryCode": "FQHC",
    "licenseStatus": null,
    "inService": null,
    "licenseNumber": null,
    "licenseEffectiveDate": null,
    "licenseExpirationDate": null,
    "dataDate": "10/18/2025",
    "capacity": 0,
    "address": "705 EAST ST",
    "city": "CORNING",
    "zip": "96021",
    "county": "TEHAMA",
    "phone": null,
    "lat": 39.92878398,
    "lng": -122.175519
  }
]