[
  {
    "id": "100001760",
    "name": "MERCY HOSPICE MT. SHASTA",
    "npi": "1548380272",
    "hcaiId": "406474011",
    "businessName": "DIGNITY HEALTH",
    "contactEmail": "NANCY.HOWK900@COMMONSPIRIT.ORG",
    "categoryName": "HOSPICE",
    "categoryCode": "HOSPICE",
    "licenseStatus": "ACTIVE",
    "inService": true,
    "licenseNumber": "100000756",
    "licenseEffectiveDate": "11/06/2024",
    "licenseExpirationDate": "11/05/2026",
    "dataDate": "10/18/2025",
    "capacity": 0,
    "address": "635 LASSEN LN",
    "city": "MOUNT SHASTA",
    "zip": "96067",
    "county": "SISKIYOU",
    "phone": "(530) 245-4040",
    "lat": 41.32089,
    "lng": -122.3273295
  },
  {
    "id": "230000012",
    "name": "MERCY MEDICAL CENTER MT. SHASTA",
    "npi": "1518085430",
    "hcaiId": "106470871",
    "businessName": "DIGNITY HEALTH",
    "contactEmail": "ELIZABETH.PULATIE@COMMONSPIRIT.ORG",
    "categoryName": "GENERAL ACUTE CARE HOSPITAL",
    "categoryCode": "GACH",
    "licenseStatus": "ACTIVE",
    "inService": true,
    "licenseNumber": "230000015",
    "licenseEffectiveDate": "11/28/2025",
    "licenseExpirationDate": "11/27/2026",
    "dataDate": "10/18/2025",
    "capacity": 33,
    "address": "914 PINE ST",
    "city": "MOUNT SHASTA",
    "zip": "96067",
    "county": "SISKIYOU",
    "phone": "(530) 926-9379",
    "lat": 41.318991,
    "lng": -122.323059
  },
  {
    "id": "230000087",
    "name": "MERCY MT SHASTA COMMUNITY CLINIC",
    "npi": "1568799500",
    "hcaiId": "306472314",
    "businessName": "DIGNITY HEALTH",
    "contactEmail": null,
    "categoryName": "PRIMARY CARE CLINIC",
    "categoryCode": "RHC/OP",
    "licenseStatus": "ACTIVE",
    "inService": true,
    "licenseNumber": "230000015",
    "licenseEffectiveDate": "11/28/2025",
    "licenseExpirationDate": "11/27/2026",
    "dataDate": "10/18/2025",
    "capacity": 0,
    "address": "912 PINE ST",
    "city": "MOUNT SHASTA",
    "zip": "96067",
    "county": "SISKIYOU",
    "phone": "(530) 926-5105",
    "lat": 41.31784437,
    "lng": -122.3215561
  },
  {
    "id": "630028393",
    "name": "MT. SHASTA ALTERNATIVE HEALTH CENTER",
    "npi": null,
    "hcaiId": null,
    "businessName": "MOUNTAIN VALLEYS HEALTH CENTERS, INC",
    "contactEmail": null,
    "categoryName": "PRIMARY CARE CLINIC",
    "categoryCode": "COMTYC",
    "licenseStatus": "ACTIVE",
    "inService": true,
    "licenseNumber": "230000104",
    "licenseEffectiveDate": "02/03/2025",
    "licenseExpirationDate": "11/19/2025",
    "dataDate": "10/18/2025",
    "capacity": 0,
    "address": "701 PINE ST",
    "city": "MOUNT SHASTA",
    "zip": "96067",
    "county": "SISKIYOU",
    "phone": null,
    "lat": 41.31569299,
    "lng": -122.319278
  },
  {
    "id": "630018105",
    "name": "MT. SHASTA HEALTH CENTER",
    "npi": null,
    "hcaiId": null,
    "businessName": "MOUNTAIN VALLEYS HEALTH CENTERS, INC",
    "contactEmail": null,
    "categoryName": "PRIMARY CARE CLINIC",
    "categoryCode": "COMTYC",
    "licenseStatus": "ACTIVE",
    "inService": true,
    "licenseNumber": "230000104",
    "licenseEffectiveDate": "02/03/2025",
    "licenseExpirationDate": "11/19/2025",
    "dataDate": "10/18/2025",
    "capacity": 0,
    "address": "101 OLD MCCLOUD RD",
    "city": "MOUNT SHASTA",
    "zip": "96067",
    "county": "SISKIYOU",
    "phone": null,
    "lat": 41.304834,
    "lng": -122.310468
  },
  {
    "id": "630014685",
    "name": "PINE STREET CLINIC",
    "npi": null,
    "hcaiId": null,
    "businessName": "DIGNITY HEALTH",
    "contactEmail": null,
    "categoryName": "PRIMARY CARE CLINIC",
    "categoryCode": "RHC/OP",
    "licenseStatus": "ACTIVE",
    "inService": true,
    "licenseNumber": "230000015",
    "licenseEffectiveDate": "11/28/2025",
    "licenseExpirationDate": "11/27/2026",
    "dataDate": "10/18/2025",
    "capacity": 0,
    "address": "408 PINE ST",
    "city": "MOUNT SHASTA",
    "zip": "96067",
    "county": "SISKIYOU",
    "phone": "(530) 926-7196",
    "lat": 41.31324,
    "lng": -122.315301
  },
  {
    "id": "630012983",
    "name": "SHASTA FAMILY CARE",
    "npi": "1902183098",
    "hcaiId": null,
    "businessName": null,
    "contactEmail": null,
    "categoryName": "PRIMARY CARE CLINIC",
    "categoryCode": "RHC/MD",
    "licenseStatus": null,
    "inService": null,
    "licenseNumber": null,
    "licenseEffectiveDate": null,
    "licenseExpirationDate": null,
    "dataDate": "10/18/2025",
    "capacity": 0,
    "address": "725 PINE STREET",
    "city": "MOUNT SHASTA",
    "zip": "96067",
    "county": "SISKIYOU",
    "phone": "(530) 926-4556",
    "lat": 41.31592563,
    "lng": -122.3193006
  },
  {
    "id": "630019353",
    "name": "SHASTA VALLEY COMMUNITY HEALTH CENTER",
    "npi": "1033675582",
    "hcaiId": "306470534",
    "businessName": "MCCLOUD HEALTHCARE CLINIC, INC.",
    "contactEmail": "RACHAELL@SHASTACASCADEHEALTH.ORG",
    "categoryName": "PRIMARY CARE CLINIC",
    "categoryCode": "COMTYC",
    "licenseStatus": "ACTIVE",
    "inService": true,
    "licenseNumber": "550005342",
    "licenseEffectiveDate": "03/19/2025",
    "licenseExpirationDate": "03/18/2026",
    "dataDate": "10/18/2025",
    "capacity": 0,
    "address": "824 PINE ST",
    "city": "MT SHASTA",
    "zip": "96067",
    "county": "SISKIYOU",
    "phone": "(530) 964-2389",
    "lat": 41.31720912,
    "lng": -122.3207339
  }
]