[
  {
    "id": "630018426",
    "name": "DIGNITY HEALTH LASSEN MEDICAL CENTER-RED BLUFF",
    "npi": "1083732853",
    "hcaiId": null,
    "businessName": "DIGNITY HEALTH",
    "contactEmail": null,
    "categoryName": "PRIMARY CARE CLINIC",
    "categoryCode": "RHC/OP",
    "licenseStatus": "ACTIVE",
    "inService": true,
    "licenseNumber": "230000036",
    "licenseEffectiveDate": "09/18/2025",
    "licenseExpirationDate": "11/27/2025",
    "dataDate": "10/18/2025",
    "capacity": 0,
    "address": "2450 SISTER MARY COLUMBA DR",
    "city": "RED BLUFF",
    "zip": "96080",
    "county": "TEHAMA",
    "phone": null,
    "lat": 40.14945,
    "lng": -122.2220385
  },
  {
    "id": "630017887",
    "name": "DIGNITY HEALTH WOMEN'S HEALTH SERVICES",
    "npi": null,
    "hcaiId": null,
    "businessName": "DIGNITY HEALTH",
    "contactEmail": "KRISTINE.KEUBLI@DIGNITYHEALTH.ORG",
    "categoryName": "PRIMARY CARE CLINIC",
    "categoryCode": "RHC/OP",
    "licenseStatus": "ACTIVE",
    "inService": true,
    "licenseNumber": "230000036",
    "licenseEffectiveDate": "09/18/2025",
    "licenseExpirationDate": "11/27/2025",
    "dataDate": "10/18/2025",
    "capacity": 0,
    "address": "2490 SISTER MARY COLUMBA DR",
    "city": "RED BLUFF",
    "zip": "96080",
    "county": "TEHAMA",
    "phone": "(530) 529-2966",
    "lat": 40.149639,
    "lng": -122.220729
  },
  {
    "id": "230000715",
    "name": "FRONTIER VILLAGE FAMILY HEALTH CENTER, INC.",
    "npi": "1477667384",
    "hcaiId": null,
    "businessName": "COLUSA MEDICAL CENTER, LLC",
    "contactEmail": null,
    "categoryName": "PRIMARY CARE CLINIC",
    "categoryCode": "RHC/OP",
    "licenseStatus": "ACTIVE",
    "inService": true,
    "licenseNumber": "230000149",
    "licenseEffectiveDate": "06/01/2025",
    "licenseExpirationDate": "11/29/2025",
    "dataDate": "10/18/2025",
    "capacity": 0,
    "address": "645 ANTELOPE BLVD, SUITE 24",
    "city": "RED BLUFF",
    "zip": "96080",
    "county": "TEHAMA",
    "phone": "(530) 528-7650",
    "lat": 40.185099,
    "lng": -122.20218
  },
  {
    "id": "630023593",
    "name": "HOME CARE FOR THE 21ST CENTURY - REDDING",
    "npi": null,
    "hcaiId": null,
    "businessName": "SUNRISE SUNSET HEALTHCARE LLC",
    "contactEmail": "DARLENEC530@AOL.COM",
    "categoryName": "HOSPICE",
    "categoryCode": "HOSPICE",
    "licenseStatus": "ACTIVE",
    "inService": true,
    "licenseNumber": "550008494",
    "licenseEffectiveDate": "04/18/2023",
    "licenseExpirationDate": "04/17/2025",
    "dataDate": "10/18/2025",
    "capacity": 0,
    "address": "621 WALNUT ST",
    "city": "RED BLUFF",
    "zip": "96080",
    "county": "TEHAMA",
    "phone": "(530) 356-4448",
    "lat": 40.17645,
    "lng": -122.2389405
  },
  {
    "id": "230000824",
    "name": "NORTHERN VALLEY INDIAN HEALTH INC",
    "npi": "1588799449",
    "hcaiId": "306524015",
    "businessName": "NORTHERN VALLEY INDIAN HEALTH, INC.",
    "contactEmail": "NATALIE.HODGEN@NVIH.ORG",
    "categoryName": "PRIMARY CARE CLINIC",
    "categoryCode": "COMTYC",
    "licenseStatus": "ACTIVE",
    "inService": true,
    "licenseNumber": "230000357",
    "licenseEffectiveDate": "11/13/2025",
    "licenseExpirationDate": "11/12/2026",
    "dataDate": "10/18/2025",
    "capacity": 0,
    "address": "2500 MAIN ST",
    "city": "RED BLUFF",
    "zip": "96080",
    "county": "TEHAMA",
    "phone": "(530) 934-4641",
    "lat": 40.192614,
    "lng": -122.23935
  },
  {
    "id": "630006401",
    "name": "RED BLUFF DIALYSIS CENTER",
    "npi": "1932127800",
    "hcaiId": "306524014",
    "businessName": "RENAL TREATMENT CENTERS - CALIFORNIA, INC.",
    "contactEmail": "CAL_C@DAVITA.COM",
    "categoryName": "CHRONIC DIALYSIS CLINIC",
    "categoryCode": "ESRD/CDC",
    "licenseStatus": "ACTIVE",
    "inService": true,
    "licenseNumber": "550000181",
    "licenseEffectiveDate": "12/06/2024",
    "licenseExpirationDate": "12/05/2025",
    "dataDate": "10/18/2025",
    "capacity": 15,
    "address": "2455 SISTER MARY COLUMBA DR",
    "city": "RED BLUFF",
    "zip": "96080",
    "county": "TEHAMA",
    "phone": "(530) 527-0052",
    "lat": 40.148586,
    "lng": -122.221152
  },
  {
    "id": "230000028",
    "name": "RED BLUFF HEALTH CARE CENTER",
    "npi": "1518032150",
    "hcaiId": "206522221",
    "businessName": "RED BLUFF HEALTH CARE, INC.",
    "contactEmail": "RUSS@RBHC.BIZ",
    "categoryName": "SKILLED NURSING FACILITY",
    "categoryCode": "SNF",
    "licenseStatus": "ACTIVE",
    "inService": true,
    "licenseNumber": "230000051",
    "licenseEffectiveDate": "06/01/2025",
    "licenseExpirationDate": "05/31/2026",
    "dataDate": "10/18/2025",
    "capacity": 58,
    "address": "555 LUTHER RD",
    "city": "RED BLUFF",
    "zip": "96080",
    "county": "TEHAMA",
    "phone": "(530) 527-6232",
    "lat": 40.160394,
    "lng": -122.231979
  },
  {
    "id": "630027685",
    "name": "RIDGELINE PEDIATRIC - RED BLUFF",
    "npi": null,
    "hcaiId": null,
    "businessName": "CROSSPEAKS SERVICES, INC.",
    "contactEmail": "MLYMAN@RIDGELINEPEDIATRIC.COM",
    "categoryName": "PEDIATRIC DAY HEALTH & RESPITE CARE FACILITY",
    "categoryCode": "PDHRCF",
    "licenseStatus": "ACTIVE",
    "inService": true,
    "licenseNumber": "550009745",
    "licenseEffectiveDate": "04/09/2025",
    "licenseExpirationDate": "04/08/2026",
    "dataDate": "10/18/2025",
    "capacity": 12,
    "address": "285 GILMORE RD",
    "city": "RED BLUFF",
    "zip": "96080",
    "county": "TEHAMA",
    "phone": "(435) 881-6338",
    "lat": 40.1722877,
    "lng": -122.2236845
  },
  {
    "id": "230000027",
    "name": "SHASTA VIEW CARE CENTER",
    "npi": "1275287047",
    "hcaiId": "206522099",
    "businessName": "SHASTA VIEW CARE CENTER, LLC",
    "contactEmail": "ADMINISTRATOR@SHASTACARECENTER.ORG",
    "categoryName": "SKILLED NURSING FACILITY",
    "categoryCode": "SNF",
    "licenseStatus": "ACTIVE",
    "inService": true,
    "licenseNumber": "230000043",
    "licenseEffectiveDate": "03/23/2025",
    "licenseExpirationDate": "03/22/2026",
    "dataDate": "10/18/2025",
    "capacity": 55,
    "address": "1795 WALNUT ST",
    "city": "RED BLUFF",
    "zip": "96080",
    "county": "TEHAMA",
    "phone": "(530) 527-2046",
    "lat": 40.169142,
    "lng": -122.252958
  },
  {
    "id": "230000020",
    "name": "ST. ELIZABETH COMMUNITY HOSPITAL",
    "npi": "1083732853",
    "hcaiId": "106521041",
    "businessName": "DIGNITY HEALTH",
    "contactEmail": "KELLEY.BAAS@COMMONSPIRIT.ORG",
    "categoryName": "GENERAL ACUTE CARE HOSPITAL",
    "categoryCode": "GACH",
    "licenseStatus": "ACTIVE",
    "inService": true,
    "licenseNumber": "230000036",
    "licenseEffectiveDate": "09/18/2025",
    "licenseExpirationDate": "11/27/2025",
    "dataDate": "10/18/2025",
    "capacity": 76,
    "address": "2550 SISTER MARY COLUMBA DR",
    "city": "RED BLUFF",
    "zip": "96080",
    "county": "TEHAMA",
    "phone": "(530) 529-8020",
    "lat": 40.148127,
    "lng": -122.2193385
  },
  {
    "id": "230000070",
    "name": "ST. ELIZABETH COMMUNITY HOSPITAL HHA",
    "npi": "1871612614",
    "hcaiId": "406522217",
    "businessName": "DIGNITY HEALTH",
    "contactEmail": "NANCY.HOWK900@COMMONSPIRIT.ORG",
    "categoryName": "HOME HEALTH AGENCY",
    "categoryCode": "HHA",
    "licenseStatus": "ACTIVE",
    "inService": true,
    "licenseNumber": "230000048",
    "licenseEffectiveDate": "11/28/2024",
    "licenseExpirationDate": "11/27/2025",
    "dataDate": "10/18/2025",
    "capacity": 0,
    "address": "1425 VISTA WAY",
    "city": "RED BLUFF",
    "zip": "96080",
    "county": "TEHAMA",
    "phone": "(530) 245-4044",
    "lat": 40.153347,
    "lng": -122.246838
  },
  {
    "id": "630007001",
    "name": "ST. ELIZABETH HOSPICE (BRANCH)",
    "npi": null,
    "hcaiId": "406524013",
    "businessName": "DIGNITY HEALTH",
    "contactEmail": null,
    "categoryName": "HOSPICE",
    "categoryCode": "HOSPICE",
    "licenseStatus": "ACTIVE",
    "inService": true,
    "licenseNumber": "100000778",
    "licenseEffectiveDate": "03/24/2024",
    "licenseExpirationDate": "03/23/2026",
    "dataDate": "10/18/2025",
    "capacity": 0,
    "address": "1425 VISTA WAY",
    "city": "RED BLUFF",
    "zip": "96080",
    "county": "TEHAMA",
    "phone": null,
    "lat": 40.153347,
    "lng": -122.246838
  },
  {
    "id": "230000673",
    "name": "TEHAMA COUNTY HEALTH CENTER CLINIC",
    "npi": "1043427388",
    "hcaiId": null,
    "businessName": null,
    "contactEmail": null,
    "categoryName": "PRIMARY CARE CLINIC",
    "categoryCode": "RHC",
    "licenseStatus": null,
    "inService": null,
    "licenseNumber": null,
    "licenseEffectiveDate": null,
    "licenseExpirationDate": null,
    "dataDate": "10/18/2025",
    "capacity": 0,
    "address": "1850 WALNUT ST",
    "city": "RED BLUFF",
    "zip": "96080",
    "county": "TEHAMA",
    "phone": "(530) 527-0350",
    "lat": 40.16906253,
    "lng": -122.2542716
  }
]