[
  {
    "id": "630013612",
    "name": "MERCY LAKE SHASTINA COMMUNITY CLINIC",
    "npi": null,
    "hcaiId": null,
    "businessName": "DIGNITY HEALTH",
    "contactEmail": null,
    "categoryName": "PRIMARY CARE CLINIC",
    "categoryCode": "RHC/OP",
    "licenseStatus": "ACTIVE",
    "inService": true,
    "licenseNumber": "230000015",
    "licenseEffectiveDate": "11/28/2025",
    "licenseExpirationDate": "11/27/2026",
    "dataDate": "10/18/2025",
    "capacity": 0,
    "address": "16337 EVERHART DR",
    "city": "WEED",
    "zip": "96094",
    "county": "SISKIYOU",
    "phone": null,
    "lat": 41.527323,
    "lng": -122.362722
  },
  {
    "id": "230000043",
    "name": "SHASTA VIEW ESTATES",
    "npi": "1497820021",
    "hcaiId": "206471079",
    "businessName": "SHASTA VIEW ESTATES, INC.",
    "contactEmail": "SVENHA@DAKAVIA.COM",
    "categoryName": "SKILLED NURSING FACILITY",
    "categoryCode": "SNF",
    "licenseStatus": "ACTIVE",
    "inService": true,
    "licenseNumber": "230000042",
    "licenseEffectiveDate": "12/14/2024",
    "licenseExpirationDate": "12/13/2025",
    "dataDate": "10/18/2025",
    "capacity": 59,
    "address": "445 PARK ST",
    "city": "WEED",
    "zip": "96094",
    "county": "SISKIYOU",
    "phone": "(530) 938-4429",
    "lat": 41.426181,
    "lng": -122.3856
  },
  {
    "id": "630018106",
    "name": "WEED HEALTH CENTER",
    "npi": null,
    "hcaiId": null,
    "businessName": "MOUNTAIN VALLEYS HEALTH CENTERS, INC",
    "contactEmail": null,
    "categoryName": "PRIMARY CARE CLINIC",
    "categoryCode": "COMTYC",
    "licenseStatus": "ACTIVE",
    "inService": true,
    "licenseNumber": "230000104",
    "licenseEffectiveDate": "02/03/2025",
    "licenseExpirationDate": "11/19/2025",
    "dataDate": "10/18/2025",
    "capacity": 0,
    "address": "50 ALAMO AVE",
    "city": "WEED",
    "zip": "96094",
    "county": "SISKIYOU",
    "phone": null,
    "lat": 41.426811,
    "lng": -122.3850285
  }
]