[
  {
    "id": "630017679",
    "name": "REDDING RANCHERIA TRINITY HEALTH CENTER",
    "npi": null,
    "hcaiId": null,
    "businessName": null,
    "contactEmail": null,
    "categoryName": "PRIMARY CARE CLINIC",
    "categoryCode": "FQHC",
    "licenseStatus": null,
    "inService": null,
    "licenseNumber": null,
    "licenseEffectiveDate": null,
    "licenseExpirationDate": null,
    "dataDate": "10/18/2025",
    "capacity": 0,
    "address": "31660 HIGHWAY 3",
    "city": "WEAVERVILLE",
    "zip": "96093",
    "county": "TRINITY",
    "phone": null,
    "lat": 40.738338,
    "lng": -122.927139
  },
  {
    "id": "630010721",
    "name": "TRINITY COMMUNITY HEALTH CLINIC",
    "npi": "1356422307",
    "hcaiId": null,
    "businessName": "MOUNTAIN COMMUNITIES HEALTHCARE DISTRICT",
    "contactEmail": null,
    "categoryName": "PRIMARY CARE CLINIC",
    "categoryCode": "RHC/OP",
    "licenseStatus": "ACTIVE",
    "inService": true,
    "licenseNumber": "230000038",
    "licenseEffectiveDate": "11/09/2024",
    "licenseExpirationDate": "11/08/2025",
    "dataDate": "10/18/2025",
    "capacity": 0,
    "address": "31 EASTER AVENUE",
    "city": "WEAVERVILLE",
    "zip": "96093",
    "county": "TRINITY",
    "phone": "(530) 623-5541",
    "lat": 40.737393,
    "lng": -122.9399415
  },
  {
    "id": "630018576",
    "name": "TRINITY DENTAL CARE",
    "npi": null,
    "hcaiId": null,
    "businessName": "THE WECARE GROUP",
    "contactEmail": null,
    "categoryName": "PRIMARY CARE CLINIC",
    "categoryCode": "COMTYC",
    "licenseStatus": "ACTIVE",
    "inService": true,
    "licenseNumber": "230000060",
    "licenseEffectiveDate": "11/27/2024",
    "licenseExpirationDate": "11/26/2025",
    "dataDate": "10/18/2025",
    "capacity": 0,
    "address": "100 HORSESHOE LN",
    "city": "WEAVERVILLE",
    "zip": "96093",
    "county": "TRINITY",
    "phone": null,
    "lat": 40.73605369,
    "lng": -122.9294914
  },
  {
    "id": "230000022",
    "name": "TRINITY HOSPITAL",
    "npi": "1750462271",
    "hcaiId": "106531059",
    "businessName": "MOUNTAIN COMMUNITIES HEALTHCARE DISTRICT",
    "contactEmail": "AROGERS@MCMEDICAL.ORG",
    "categoryName": "GENERAL ACUTE CARE HOSPITAL",
    "categoryCode": "GACH",
    "licenseStatus": "ACTIVE",
    "inService": true,
    "licenseNumber": "230000038",
    "licenseEffectiveDate": "11/09/2024",
    "licenseExpirationDate": "11/08/2025",
    "dataDate": "10/18/2025",
    "capacity": 25,
    "address": "60 EASTER AVENUE",
    "city": "WEAVERVILLE",
    "zip": "96093",
    "county": "TRINITY",
    "phone": "(530) 623-2687",
    "lat": 40.738383,
    "lng": -122.939649
  },
  {
    "id": "230000197",
    "name": "TRINITY HOSPITAL SKILLED NURSING FACILITY",
    "npi": null,
    "hcaiId": null,
    "businessName": "MOUNTAIN COMMUNITIES HEALTHCARE DISTRICT",
    "contactEmail": null,
    "categoryName": "SKILLED NURSING FACILITY",
    "categoryCode": "SNF",
    "licenseStatus": "ACTIVE",
    "inService": true,
    "licenseNumber": "230000038",
    "licenseEffectiveDate": "11/09/2024",
    "licenseExpirationDate": "11/08/2025",
    "dataDate": "10/18/2025",
    "capacity": 13,
    "address": "60 EASTER AVENUE",
    "city": "WEAVERVILLE",
    "zip": "96093",
    "county": "TRINITY",
    "phone": "(530) 623-5541",
    "lat": 40.738383,
    "lng": -122.939649
  }
]