[
  {
    "id": "230000021",
    "name": "SURPRISE VALLEY COMMUNITY HOSPITAL",
    "npi": "1801973052",
    "hcaiId": "106250955",
    "businessName": "SURPRISE VALLEY HEALTH CARE DISTRICT",
    "contactEmail": "ADMIN@SVHOSPITAL.ORG",
    "categoryName": "GENERAL ACUTE CARE HOSPITAL",
    "categoryCode": "GACH",
    "licenseStatus": "ACTIVE",
    "inService": true,
    "licenseNumber": "230000025",
    "licenseEffectiveDate": "11/01/2024",
    "licenseExpirationDate": "10/31/2025",
    "dataDate": "10/18/2025",
    "capacity": 4,
    "address": "741 N MAIN ST",
    "city": "CEDARVILLE",
    "zip": "96104",
    "county": "MODOC",
    "phone": "(530) 279-6111",
    "lat": 41.53220686,
    "lng": -120.1718479
  },
  {
    "id": "230000144",
    "name": "SURPRISE VALLEY COMMUNITY HOSPITAL D/P SNF",
    "npi": "1700963956",
    "hcaiId": null,
    "businessName": "SURPRISE VALLEY HEALTH CARE DISTRICT",
    "contactEmail": null,
    "categoryName": "SKILLED NURSING FACILITY",
    "categoryCode": "SNF",
    "licenseStatus": "ACTIVE",
    "inService": true,
    "licenseNumber": "230000025",
    "licenseEffectiveDate": "11/01/2024",
    "licenseExpirationDate": "10/31/2025",
    "dataDate": "10/18/2025",
    "capacity": 22,
    "address": "741 N MAIN ST",
    "city": "CEDARVILLE",
    "zip": "96104",
    "county": "MODOC",
    "phone": "(530) 279-6111",
    "lat": 41.53220686,
    "lng": -120.1718479
  },
  {
    "id": "230000816",
    "name": "SURPRISE VALLEY MEDICAL CLINIC",
    "npi": "1073693651",
    "hcaiId": null,
    "businessName": "SURPRISE VALLEY HEALTH CARE DISTRICT",
    "contactEmail": null,
    "categoryName": "PRIMARY CARE CLINIC",
    "categoryCode": "RHC/OP",
    "licenseStatus": "ACTIVE",
    "inService": true,
    "licenseNumber": "230000025",
    "licenseEffectiveDate": "11/01/2024",
    "licenseExpirationDate": "10/31/2025",
    "dataDate": "10/18/2025",
    "capacity": 0,
    "address": "745 MAIN STREET",
    "city": "CEDARVILLE",
    "zip": "96104",
    "county": "MODOC",
    "phone": "(530) 279-6115",
    "lat": 41.532192,
    "lng": -120.1713795
  }
]