[
  {
    "id": "630016456",
    "name": "BANNER HEALTH CLINIC",
    "npi": "1205267549",
    "hcaiId": "306184014",
    "businessName": "BANNER HEALTH",
    "contactEmail": "BANNERLICENSING@BANNERHEALTH.COM",
    "categoryName": "PRIMARY CARE CLINIC",
    "categoryCode": "COMTYC",
    "licenseStatus": "ACTIVE",
    "inService": true,
    "licenseNumber": "550003614",
    "licenseEffectiveDate": "10/05/2025",
    "licenseExpirationDate": "10/04/2026",
    "dataDate": "10/18/2025",
    "capacity": 0,
    "address": "1680 PAUL BUNYAN RD",
    "city": "SUSANVILLE",
    "zip": "96130",
    "county": "LASSEN",
    "phone": "(480) 684-5062",
    "lat": 40.421232,
    "lng": -120.6472905
  },
  {
    "id": "230000008",
    "name": "BANNER LASSEN MEDICAL CENTER",
    "npi": "1538197231",
    "hcaiId": "106184008",
    "businessName": "BANNER LASSEN MEDICAL CENTER",
    "contactEmail": "ERIKA.TOMLINSON@BANNERHEALTH.COM",
    "categoryName": "GENERAL ACUTE CARE HOSPITAL",
    "categoryCode": "GACH",
    "licenseStatus": "ACTIVE",
    "inService": true,
    "licenseNumber": "230000020",
    "licenseEffectiveDate": "01/01/2025",
    "licenseExpirationDate": "12/31/2025",
    "dataDate": "10/18/2025",
    "capacity": 25,
    "address": "1800 SPRING RIDGE DR",
    "city": "SUSANVILLE",
    "zip": "96130",
    "county": "LASSEN",
    "phone": "(530) 252-2243",
    "lat": 40.4380866,
    "lng": -120.6248843
  },
  {
    "id": "150001216",
    "name": "HIGH DESERT STATE PRISON - CORRECTIONAL TREATMENT CENTER",
    "npi": null,
    "hcaiId": null,
    "businessName": "CA DEPARTMENT OF CORRECTIONS AND REHABILITATION",
    "contactEmail": "KATY.ZIEHM@CDCR.CA.GOV",
    "categoryName": "CORRECTIONAL TREATMENT CENTER",
    "categoryCode": "CTC",
    "licenseStatus": "ACTIVE",
    "inService": true,
    "licenseNumber": "150000489",
    "licenseEffectiveDate": "11/10/2024",
    "licenseExpirationDate": "11/09/2025",
    "dataDate": "10/18/2025",
    "capacity": 30,
    "address": "475-750 RICE CANYON RD",
    "city": "SUSANVILLE",
    "zip": "96130",
    "county": "LASSEN",
    "phone": "(530) 251-5100",
    "lat": 40.40346702,
    "lng": -120.5259829
  },
  {
    "id": "230000039",
    "name": "LASSEN NURSING & REHABILITATION CENTER",
    "npi": "1124170519",
    "hcaiId": "206182233",
    "businessName": "CF SUSANVILLE, LLC",
    "contactEmail": "LORRIE.FITZGERALD@LASSENNRC.COM",
    "categoryName": "SKILLED NURSING FACILITY",
    "categoryCode": "SNF",
    "licenseStatus": "ACTIVE",
    "inService": true,
    "licenseNumber": "230000058",
    "licenseEffectiveDate": "04/30/2025",
    "licenseExpirationDate": "04/29/2026",
    "dataDate": "10/18/2025",
    "capacity": 96,
    "address": "2005 RIVER ST",
    "city": "SUSANVILLE",
    "zip": "96130",
    "county": "LASSEN",
    "phone": "(530) 257-5341",
    "lat": 40.412772,
    "lng": -120.645369
  },
  {
    "id": "230000341",
    "name": "LASSEN SURGERY CENTER",
    "npi": "1962543710",
    "hcaiId": "306184004",
    "businessName": "S. K. UPPAL AND INDRA UPPAL",
    "contactEmail": null,
    "categoryName": "SURGICAL CLINIC",
    "categoryCode": "ASC",
    "licenseStatus": "INACTIVE - CAPEN DECISION",
    "inService": false,
    "licenseNumber": "230000279",
    "licenseEffectiveDate": "04/11/2007",
    "licenseExpirationDate": "04/10/2008",
    "dataDate": "10/18/2025",
    "capacity": 0,
    "address": "103 FAIR DR",
    "city": "SUSANVILLE",
    "zip": "96130",
    "county": "LASSEN",
    "phone": "(530) 257-7773",
    "lat": 40.414302,
    "lng": -120.638232
  },
  {
    "id": "230000086",
    "name": "NORTHEASTERN HEALTH CENTER",
    "npi": "1477563518",
    "hcaiId": "306184010",
    "businessName": "NORTHEASTERN RURAL HEALTH CLINICS, INC.",
    "contactEmail": "DANIELLEWOLF@NORTHEASTERNHEALTH.ORG",
    "categoryName": "PRIMARY CARE CLINIC",
    "categoryCode": "COMTYC",
    "licenseStatus": "ACTIVE",
    "inService": true,
    "licenseNumber": "230000066",
    "licenseEffectiveDate": "01/22/2025",
    "licenseExpirationDate": "01/21/2026",
    "dataDate": "10/18/2025",
    "capacity": 0,
    "address": "1850 SPRING RIDGE DR",
    "city": "SUSANVILLE",
    "zip": "96130",
    "county": "LASSEN",
    "phone": "(530) 251-5000",
    "lat": 40.437756,
    "lng": -120.6255915
  },
  {
    "id": "630011128",
    "name": "QUINCY HOME MEDICAL SERVICES",
    "npi": "1306873351",
    "hcaiId": "406184012",
    "businessName": "QUINCY HOME MEDICAL SERVICE LLC",
    "contactEmail": null,
    "categoryName": "HOME HEALTH AGENCY",
    "categoryCode": "HHA",
    "licenseStatus": "ACTIVE",
    "inService": true,
    "licenseNumber": "230000356",
    "licenseEffectiveDate": "01/26/2025",
    "licenseExpirationDate": "01/25/2026",
    "dataDate": "10/18/2025",
    "capacity": 0,
    "address": "75 S GAY ST",
    "city": "SUSANVILLE",
    "zip": "96130",
    "county": "LASSEN",
    "phone": "(530) 257-4100",
    "lat": 40.41755397,
    "lng": -120.6608453
  }
]