[
  {
    "id": "630017898",
    "name": "BARTON CENTER FOR ORTHOPEDICS AND WELLNESS",
    "npi": null,
    "hcaiId": "306090388",
    "businessName": "BARTON HEALTHCARE SYSTEM",
    "contactEmail": "KCONANT@BARTONHEALTH.ORG",
    "categoryName": "PRIMARY CARE CLINIC",
    "categoryCode": "COMTYC",
    "licenseStatus": "ACTIVE",
    "inService": true,
    "licenseNumber": "550004281",
    "licenseEffectiveDate": "07/03/2025",
    "licenseExpirationDate": "07/02/2026",
    "dataDate": "10/18/2025",
    "capacity": 0,
    "address": "2170 SOUTH AVE, SUITE B, SECOND FLOOR",
    "city": "SOUTH LAKE TAHOE",
    "zip": "96150",
    "county": "EL DORADO",
    "phone": "(530) 600-1985",
    "lat": 38.911599,
    "lng": -119.9975895
  },
  {
    "id": "030001778",
    "name": "BARTON COMMUNITY HEALTH CENTER",
    "npi": "1053310326",
    "hcaiId": null,
    "businessName": "BARTON HEALTHCARE SYSTEM",
    "contactEmail": null,
    "categoryName": "PRIMARY CARE CLINIC",
    "categoryCode": "RHC/OP",
    "licenseStatus": "ACTIVE",
    "inService": true,
    "licenseNumber": "030000013",
    "licenseEffectiveDate": "06/30/2025",
    "licenseExpirationDate": "06/29/2026",
    "dataDate": "10/18/2025",
    "capacity": 0,
    "address": "2201 SOUTH AVENUE",
    "city": "SOUTH LAKE TAHOE",
    "zip": "96150",
    "county": "EL DORADO",
    "phone": "(530) 543-5623",
    "lat": 38.912652,
    "lng": -119.996298
  },
  {
    "id": "100000155",
    "name": "BARTON HEALTHCARE SYSTEM HOME HEALTH",
    "npi": "1356348890",
    "hcaiId": "406092234",
    "businessName": "BARTON HEALTHCARE SYSTEM",
    "contactEmail": "SDELMERCADO@BARTONHEALTH.ORG",
    "categoryName": "HOME HEALTH AGENCY",
    "categoryCode": "HHA",
    "licenseStatus": "ACTIVE",
    "inService": true,
    "licenseNumber": "100000174",
    "licenseEffectiveDate": "02/23/2025",
    "licenseExpirationDate": "02/22/2026",
    "dataDate": "10/18/2025",
    "capacity": 0,
    "address": "2092 LAKE TAHOE BOULEVARD, SUITE 500",
    "city": "SOUTH LAKE TAHOE",
    "zip": "96150",
    "county": "EL DORADO",
    "phone": "(530) 543-5581",
    "lat": 38.914866,
    "lng": -120.0010995
  },
  {
    "id": "100001547",
    "name": "BARTON HEALTHCARE SYSTEM HOSPICE",
    "npi": "1083678791",
    "hcaiId": null,
    "businessName": "BARTON HEALTHCARE SYSTEM",
    "contactEmail": null,
    "categoryName": "HOSPICE",
    "categoryCode": "HOSPICE",
    "licenseStatus": "ACTIVE",
    "inService": true,
    "licenseNumber": "100000174",
    "licenseEffectiveDate": "02/23/2025",
    "licenseExpirationDate": "02/22/2026",
    "dataDate": "10/18/2025",
    "capacity": 0,
    "address": "2092 LAKE TAHOE BOULEVARD, SUITE 500",
    "city": "SOUTH LAKE TAHOE",
    "zip": "96150",
    "county": "EL DORADO",
    "phone": null,
    "lat": 38.914866,
    "lng": -120.0010995
  },
  {
    "id": "030001525",
    "name": "BARTON HOSPITAL D/P SNF",
    "npi": "1891759502",
    "hcaiId": null,
    "businessName": "BARTON HEALTHCARE SYSTEM",
    "contactEmail": "CPURVANCE@BARTONHEALTH.ORG",
    "categoryName": "SKILLED NURSING FACILITY",
    "categoryCode": "SNF",
    "licenseStatus": "ACTIVE",
    "inService": true,
    "licenseNumber": "030000013",
    "licenseEffectiveDate": "06/30/2025",
    "licenseExpirationDate": "06/29/2026",
    "dataDate": "10/18/2025",
    "capacity": 48,
    "address": "2170 SOUTH AVENUE",
    "city": "SOUTH LAKE TAHOE",
    "zip": "96150",
    "county": "EL DORADO",
    "phone": "(530) 543-5885",
    "lat": 38.911599,
    "lng": -119.9975895
  },
  {
    "id": "030000114",
    "name": "BARTON MEMORIAL HOSPITAL",
    "npi": "1003867565",
    "hcaiId": "106090793",
    "businessName": "BARTON HEALTHCARE SYSTEM",
    "contactEmail": "PUBLICRELATIONS@BARTONHEALTH.ORG",
    "categoryName": "GENERAL ACUTE CARE HOSPITAL",
    "categoryCode": "GACH",
    "licenseStatus": "ACTIVE",
    "inService": true,
    "licenseNumber": "030000013",
    "licenseEffectiveDate": "06/30/2025",
    "licenseExpirationDate": "06/29/2026",
    "dataDate": "10/18/2025",
    "capacity": 63,
    "address": "2170 SOUTH AVENUE",
    "city": "SOUTH LAKE TAHOE",
    "zip": "96150",
    "county": "EL DORADO",
    "phone": "(530) 541-3420",
    "lat": 38.911599,
    "lng": -119.9975895
  }
]