[
  {
    "id": "230000269",
    "name": "TAHOE FOREST HOME HEALTH SERVICES",
    "npi": "1831251933",
    "hcaiId": "406292085",
    "businessName": "TAHOE FOREST HOSPITAL DISTRICT",
    "contactEmail": "JSTURTEVANT@TFHD.COM",
    "categoryName": "HOME HEALTH AGENCY",
    "categoryCode": "HHA",
    "licenseStatus": "ACTIVE",
    "inService": true,
    "licenseNumber": "230000146",
    "licenseEffectiveDate": "11/01/2025",
    "licenseExpirationDate": "10/31/2026",
    "dataDate": "10/18/2025",
    "capacity": 0,
    "address": "10875 PIONEER TRL",
    "city": "TRUCKEE",
    "zip": "96161",
    "county": "NEVADA",
    "phone": "(530) 582-6641",
    "lat": 39.335346,
    "lng": -120.18195
  },
  {
    "id": "100001759",
    "name": "TAHOE FOREST HOSPICE",
    "npi": "1497811012",
    "hcaiId": "406294011",
    "businessName": "TAHOE FOREST HOSPITAL DISTRICT",
    "contactEmail": "JSTURTEVANT@TFHD.COM",
    "categoryName": "HOSPICE",
    "categoryCode": "HOSPICE",
    "licenseStatus": "ACTIVE",
    "inService": true,
    "licenseNumber": "100000755",
    "licenseEffectiveDate": "03/24/2025",
    "licenseExpirationDate": "03/23/2027",
    "dataDate": "10/18/2025",
    "capacity": 0,
    "address": "10875 PIONEER TRL",
    "city": "TRUCKEE",
    "zip": "96161",
    "county": "NEVADA",
    "phone": "(530) 582-6653",
    "lat": 39.335346,
    "lng": -120.18195
  },
  {
    "id": "230000265",
    "name": "TAHOE FOREST HOSPITAL",
    "npi": "1538265780",
    "hcaiId": "106291053",
    "businessName": "TAHOE FOREST HOSPITAL DISTRICT",
    "contactEmail": "JVANGELDER@TFHD.COM",
    "categoryName": "GENERAL ACUTE CARE HOSPITAL",
    "categoryCode": "GACH",
    "licenseStatus": "ACTIVE",
    "inService": true,
    "licenseNumber": "230000151",
    "licenseEffectiveDate": "11/01/2025",
    "licenseExpirationDate": "10/31/2026",
    "dataDate": "10/18/2025",
    "capacity": 33,
    "address": "10121 PINE AVE",
    "city": "TRUCKEE",
    "zip": "96161",
    "county": "NEVADA",
    "phone": "(530) 582-6629",
    "lat": 39.324942,
    "lng": -120.20094
  },
  {
    "id": "230000334",
    "name": "TAHOE FOREST HOSPITAL D/P SNF",
    "npi": "1295897395",
    "hcaiId": null,
    "businessName": "TAHOE FOREST HOSPITAL DISTRICT",
    "contactEmail": "AROTH@TFHD.COM",
    "categoryName": "SKILLED NURSING FACILITY",
    "categoryCode": "SNF",
    "licenseStatus": "ACTIVE",
    "inService": true,
    "licenseNumber": "230000151",
    "licenseEffectiveDate": "11/01/2025",
    "licenseExpirationDate": "10/31/2026",
    "dataDate": "10/18/2025",
    "capacity": 37,
    "address": "10121 PINE AVE",
    "city": "TRUCKEE",
    "zip": "96161",
    "county": "NEVADA",
    "phone": "(530) 587-6011",
    "lat": 39.324942,
    "lng": -120.20094
  },
  {
    "id": "630018423",
    "name": "TAHOE FOREST MULTI-SPECIALITY CLINIC- IM/CARD",
    "npi": "1255835906",
    "hcaiId": null,
    "businessName": "TAHOE FOREST HOSPITAL DISTRICT",
    "contactEmail": null,
    "categoryName": "PRIMARY CARE CLINIC",
    "categoryCode": "RHC/OP",
    "licenseStatus": "ACTIVE",
    "inService": true,
    "licenseNumber": "230000151",
    "licenseEffectiveDate": "11/01/2025",
    "licenseExpirationDate": "10/31/2026",
    "dataDate": "10/18/2025",
    "capacity": 0,
    "address": "10978 DONNER PASS RD",
    "city": "TRUCKEE",
    "zip": "96161",
    "county": "NEVADA",
    "phone": null,
    "lat": 39.32618335,
    "lng": -120.202629
  },
  {
    "id": "630023612",
    "name": "TAHOE FOREST MULTISPECIALTY CLINIC - IM/OB",
    "npi": null,
    "hcaiId": null,
    "businessName": "TAHOE FOREST HOSPITAL DISTRICT",
    "contactEmail": null,
    "categoryName": "PRIMARY CARE CLINIC",
    "categoryCode": "RHC/OP",
    "licenseStatus": "ACTIVE",
    "inService": true,
    "licenseNumber": "230000151",
    "licenseEffectiveDate": "11/01/2025",
    "licenseExpirationDate": "10/31/2026",
    "dataDate": "10/18/2025",
    "capacity": 0,
    "address": "10121 PINE AVE, 2ND FLOOR",
    "city": "TRUCKEE",
    "zip": "96161",
    "county": "NEVADA",
    "phone": null,
    "lat": 39.324942,
    "lng": -120.20094
  },
  {
    "id": "630017932",
    "name": "TAHOE FOREST MULTISPECIALTY CLINIC PEDIATRICS/PRIMARY CARE",
    "npi": "1285174169",
    "hcaiId": null,
    "businessName": "TAHOE FOREST HOSPITAL DISTRICT",
    "contactEmail": null,
    "categoryName": "PRIMARY CARE CLINIC",
    "categoryCode": "RHC/OP",
    "licenseStatus": "ACTIVE",
    "inService": true,
    "licenseNumber": "230000151",
    "licenseEffectiveDate": "11/01/2025",
    "licenseExpirationDate": "10/31/2026",
    "dataDate": "10/18/2025",
    "capacity": 0,
    "address": "10956 DONNER PASS RD, 2ND AND 3RD FLOOR",
    "city": "TRUCKEE",
    "zip": "96161",
    "county": "NEVADA",
    "phone": "(530) 587-3523",
    "lat": 39.326742,
    "lng": -120.2012685
  },
  {
    "id": "230000817",
    "name": "TRUCKEE SURGERY CENTER",
    "npi": "1053352443",
    "hcaiId": "306294016",
    "businessName": "TRUCKEE SURGERY CENTER, INC.",
    "contactEmail": null,
    "categoryName": "SURGICAL CLINIC",
    "categoryCode": "ASC",
    "licenseStatus": "INACTIVE - CAPEN DECISION",
    "inService": false,
    "licenseNumber": "230000353",
    "licenseEffectiveDate": "11/19/2007",
    "licenseExpirationDate": "11/18/2008",
    "dataDate": "10/18/2025",
    "capacity": 0,
    "address": "10770 DONNER PASS RD, SUITE 201",
    "city": "TRUCKEE",
    "zip": "96161",
    "county": "NEVADA",
    "phone": "(530) 550-2940",
    "lat": 39.326796,
    "lng": -120.197718
  }
]